{
    "Hải Phòng": {
        "uri": "Hai%20Phong",
        "lat": "20.858864",
        "lon": "106.6749591",
        "name": "Hải Phòng, Việt Nam"
    },
    "Lâm Đồng": {
        "uri": "Lam%20Dong"
    },
    "Long An": {
        "uri": "Long%20An",
        "lat": "10.5720107",
        "lon": "106.6393092",
        "name": "Long An, Xã Long An, Huyện Cần Giuộc, Tỉnh Long An, Việt Nam"
    },
    "Quảng Nam": {
        "uri": "Quang%20Nam",
        "lat": "15.1807799",
        "lon": "108.0757713",
        "name": "Trà Tập, Nam Trà My, Quảng Nam, Vietnam, Nam Trà My, Tỉnh Quảng Nam, Việt Nam"
    },
    "Tiền Giang": {
        "uri": "Tien%20Giang",
        "lat": "10.3884105",
        "lon": "107.0959286",
        "name": "Tien Giang, Căn cứ Dịch vụ Dầu khí Sao Mai-Bến Đình, Thắng Nhất, Vũng Tàu, Tỉnh Bà Rịa-Vũng Tàu, 78000, Việt Nam"
    },
    "An Giang": {
        "uri": "An%20Giang",
        "lat": "10.5944568",
        "lon": "107.0721181",
        "name": "an giang, Nguyễn Duy Trinh, Tân Phú, Phú Mỹ, Phường Phú Mỹ, Thị xã Phú Mỹ, Tỉnh Bà Rịa-Vũng Tàu, Việt Nam"
    },
    "Đắk Lắk": {
        "uri": "Dak%20Lak",
        "lat": "12.8399392",
        "lon": "108.2284947",
        "name": "Đắk Lắk, Việt Nam"
    },
    "Đồng Nai": {
        "uri": "Dong%20Nai",
        "lat": "11.0063212",
        "lon": "107.1921807",
        "name": "Tỉnh Đồng Nai, Việt Nam"
    },
    "Đồng Tháp": {
        "uri": "Dong%20Thap",
        "lat": "10.6266659",
        "lon": "105.6316218",
        "name": "Đồng Tháp, Việt Nam"
    },
    "Kiên Giang": {
        "uri": "Kien%20Giang",
        "lat": "9.9113945",
        "lon": "105.2533879",
        "name": "Kiên Giang, Việt Nam"
    },
    "Hà Nội": {
        "uri": "Ha%20Noi"
    },
    "Thành phố Hồ Chí Minh": {
        "uri": "Ho%20Chi%20Minh",
        "lat": "10.7758439",
        "lon": "106.7017555",
        "name": "Thành phố Hồ Chí Minh, Quận Nhứt, 71006, Việt Nam",
        "alias": ["thành phố hồ chí minh", "tp hồ chí minh", "tp hcm", "tp. hồ chí minh", "tp.hcm", "TP.HCM", "TP. Hồ Chí Minh"]
    },
    "Bà Rịa - Vũng Tàu": {
        "uri": "Ba%20Ria-Vung%20Tau",
        "lat": "10.3486485",
        "lon": "107.0765028",
        "name": "Vũng Tàu, Tỉnh Bà Rịa-Vũng Tàu, Việt Nam"
    },
    "Bình Thuận": {
        "uri": "Binh%20Thuan"
    },
    "Gia Lai": {
        "uri": "Gia%20Lai",
        "lat": "13.7964067",
        "lon": "108.2608263",
        "name": "Tỉnh Gia Lai, Việt Nam"
    },
    "Hà Tây": {
        "uri": "Ha%20Tay",
        "lat": "21.1409186",
        "lon": "105.5060305",
        "name": "Thị xã Sơn Tây, Hà Nội, Việt Nam"
    },
    "Khánh Hoà": {
        "uri": "Khanh%20Hoa",
        "lat": "12.1960803",
        "lon": "108.9950386",
        "name": "Khánh Hòa, Việt Nam"
    },
    "Hà Nam": {
        "uri": "Ha%20Nam"
    },
    "Nghệ An": {
        "uri": "Nghe%20An",
        "lat": "19.3738868",
        "lon": "104.9233469",
        "name": "Tỉnh Nghệ An, Việt Nam"
    },
    "Ninh Thuận": {
        "uri": "Ninh%20Thuan"
    },
    "Phú Yên": {
        "uri": "Phu%20Yen",
        "lat": "13.2126552",
        "lon": "109.0834225",
        "name": "Tỉnh Phú Yên, Việt Nam"
    },
    "Quảng Bình": {
        "uri": "Quang%20Binh",
        "lat": "17.5462658",
        "lon": "106.2576229",
        "name": "Tỉnh Quảng Bình, Việt Nam"
    },
    "Kon Tum": {
        "uri": "Kon%20Tum"
    },
    "Bình Dương": {
        "uri": "Bin%20Duong",
        "lat": "11.2240687",
        "lon": "106.6674681",
        "name": "Tỉnh Bình Dương, Việt Nam"
    },
    "Bạc Liêu": {
        "uri": "Bac%20Lieu",
        "lat": "9.3477317",
        "lon": "105.5097064",
        "name": "Tỉnh Bạc Liêu, Việt Nam"
    },
    "Nam Định": {
        "uri": "Nam%20Dinh"
    },
    "Điện Biên": {
        "uri": "Dien%20Bien"
    },
    "Đắc Nông": {
        "uri": "Dac%20Nong"
    },
    "Hậu Giang": {
        "uri": "Hau%20Giang",
        "lat": "9.7633197",
        "lon": "105.6379524",
        "name": "Hậu Giang, Việt Nam"
    },
    "Bỉm Sơn": {
        "uri": "B%E1%BB%89m%20S%C6%A1n",
        "lat": "20.0881155",
        "lon": "105.88137263124904",
        "name": "Bỉm Sơn, Tỉnh Thanh Hóa, Việt Nam"
    },
    "Diên Khánh": {
        "uri": "Di%C3%AAn%20Kh%C3%A1nh"
    },
    "Sa Pá": {
        "uri": "Sa%20P%C3%A1"
    },
    "Ëp Binh Châu (1)": {
        "uri": "%C3%8Bp%20Binh%20Ch%C3%A2u%20(1)"
    },
    "Ấp Lộc Thạnh (2)": {
        "uri": "%E1%BA%A4p%20L%E1%BB%99c%20Th%E1%BA%A1nh%20(2)"
    },
    "Ëp Long Hòa (1)": {
        "uri": "%C3%8Bp%20Long%20H%C3%B2a%20(1)"
    },
    "Ap Phu Nhon (1)": {
        "uri": "Ap%20Phu%20Nhon%20(1)",
        "lat": "10.8399235",
        "lon": "106.79212",
        "name": "Hẻm 1 Dủổng Sổ 160, Phường Tăng Nhơn Phú A, Tăng Nhơn Phú A, Thành phố Thủ Đức, 171, Việt Nam"
    },
    "Ấp Rừng Lá (1)": {
        "uri": "%E1%BA%A4p%20R%E1%BB%ABng%20L%C3%A1%20(1)"
    },
    "Bà Rịa": {
        "uri": "B%C3%A0%20R%E1%BB%8Ba"
    },
    "Bac Ba": {
        "uri": "Bac%20Ba"
    },
    "Båc Liêu": {
        "uri": "B%C3%A5c%20Li%C3%AAu",
        "lat": "9.3477317",
        "lon": "105.5097064",
        "name": "Tỉnh Bạc Liêu, Việt Nam"
    },
    "Ban M'drack": {
        "uri": "Ban%20M'drack"
    },
    "Bän Pa Huone": {
        "uri": "B%C3%A4n%20Pa%20Huone"
    },
    "Biên Hòa": {
        "uri": "Bi%C3%AAn%20H%C3%B2a"
    },
    "Buôn Mrông (1)": {
        "uri": "Bu%C3%B4n%20Mr%C3%B4ng%20(1)"
    },
    "Cam Lâm": {
        "uri": "Cam%20L%C3%A2m",
        "lat": "19.128048",
        "lon": "104.795874",
        "name": "Cam Lâm, Huyện Con Cuông, Tỉnh Nghệ An, Việt Nam"
    },
    "Cha Pai": {
        "uri": "Cha%20Pai"
    },
    "Chuong Nghia": {
        "uri": "Chuong%20Nghia",
        "lat": "20.92992325",
        "lon": "105.66908491495246",
        "name": "Khu Công Nghiệp Phú Nghĩa, Chương Mỹ, Hà Nội, Việt Nam"
    },
    "Công Cô Ðô": {
        "uri": "C%C3%B4ng%20C%C3%B4%20%C3%90%C3%B4"
    },
    "Ðài Th": {
        "uri": "%C3%90%C3%A0i%20Th",
        "lat": "19.73893475",
        "lon": "105.88612759312392",
        "name": "Trường Tiểu Học Trường Sơn, Trần Xuân Soạn, Tho Đài, Sầm Sơn, Tỉnh Thanh Hóa, Việt Nam"
    },
    "Ðak Péc": {
        "uri": "%C3%90ak%20P%C3%A9c"
    },
    "Dân Phú (4)": {
        "uri": "D%C3%A2n%20Ph%C3%BA%20(4)",
        "lat": "10.922357",
        "lon": "108.008781",
        "name": "Dân Phú, Hàm Thuận Nam, Tỉnh Bình Thuận, Việt Nam"
    },
    "Ðæng Bóa (2)": {
        "uri": "%C3%90%C3%A6ng%20B%C3%B3a%20(2)"
    },
    "De Pouang": {
        "uri": "De%20Pouang"
    },
    "Diện Biên Phủ": {
        "uri": "Di%E1%BB%87n%20Bi%C3%AAn%20Ph%E1%BB%A7",
        "lat": "21.3874893",
        "lon": "103.0185",
        "name": "Điện Biên Phủ, Tỉnh Điện Biên, 380000, Việt Nam"
    },
    "Ðố Sơn": {
        "uri": "%C3%90%E1%BB%91%20S%C6%A1n",
        "lat": "20.7063701",
        "lon": "106.7880053",
        "name": "Đồ Sơn, Hải Phòng, Phường Vạn Sơn, Việt Nam"
    },
    "Ðông Hà": {
        "uri": "%C3%90%C3%B4ng%20H%C3%A0",
        "lat": "16.8172845",
        "lon": "107.1010378",
        "name": "Thành phố Đông Hà, Quảng Trị, 520000, Việt Nam"
    },
    "D÷ng Xoài": {
        "uri": "D%C3%B7ng%20Xo%C3%A0i"
    },
    "Du Long": {
        "uri": "Du%20Long",
        "lat": "21.03753445",
        "lon": "105.83878155757834",
        "name": "Di tích Khảo cổ học 18 Hoàng Diệu, Đường Độc Lập, Phường Quán Thánh, Phường Điện Biên, Quận Ba Đình, Hà Nội, 124302, Việt Nam"
    },
    "Dương Liễu (2)": {
        "uri": "D%C6%B0%C6%A1ng%20Li%E1%BB%85u%20(2)"
    },
    "Hà Ðông": {
        "uri": "H%C3%A0%20%C3%90%C3%B4ng"
    },
    "Hà Nông Trung (1)": {
        "uri": "H%C3%A0%20N%C3%B4ng%20Trung%20(1)",
        "lat": "21.2350184",
        "lon": "105.3499889",
        "name": "Cầu Trung Hà, Ba Vì, Hà Nội, Tam Nông, Tỉnh Phú Thọ, 02103, Việt Nam"
    },
    "Häi Phòng": {
        "uri": "H%C3%A4i%20Ph%C3%B2ng"
    },
    "Hiệp Ðức": {
        "uri": "Hi%E1%BB%87p%20%C3%90%E1%BB%A9c"
    },
    "Hòa Bình": {
        "uri": "H%C3%B2a%20B%C3%ACnh",
        "lat": "20.6609177",
        "lon": "105.3924747",
        "name": "Hòa Bình, Việt Nam"
    },
    "Hu": {
        "uri": "Hu"
    },
    "Huong Son": {
        "uri": "Huong%20Son",
        "lat": "18.44563635",
        "lon": "105.24816902214778",
        "name": "Hương Sơn, Hà Tĩnh, Việt Nam"
    },
    "Khương Trung (2)": {
        "uri": "Kh%C6%B0%C6%A1ng%20Trung%20(2)",
        "lat": "20.9998318",
        "lon": "105.8186321",
        "name": "Phố Khương Trung, Thanh Xuân, Quận Thanh Xuân, Hà Nội, 120911, Việt Nam"
    },
    "Kỳ Sơn": {
        "uri": "K%E1%BB%B3%20S%C6%A1n",
        "lat": "20.8859075",
        "lon": "105.3471091",
        "name": "Kỳ Sơn, Hòa Bình, 351541, Việt Nam"
    },
    "Lai Châu": {
        "uri": "Lai%20Ch%C3%A2u",
        "lat": "22.3048728",
        "lon": "102.9628862",
        "name": "Tỉnh Lai Châu, Việt Nam"
    },
    "Làng La": {
        "uri": "L%C3%A0ng%20La"
    },
    "Lạng Sơn": {
        "uri": "L%E1%BA%A1ng%20S%C6%A1n"
    },
    "Lào Cai": {
        "uri": "L%C3%A0o%20Cai"
    },
    "Lý Nhơn Bằc": {
        "uri": "L%C3%BD%20Nh%C6%A1n%20B%E1%BA%B1c",
        "lat": "10.7523793",
        "lon": "106.9287646",
        "name": "TH-Hoa Bắc - -Ấp Bến Sắn-phước thiền-, Đường số 1, KCN Nhơn Trạch, Phước Thiền, Huyện Nhơn Trạch, Tỉnh Đồng Nai, 81000, Việt Nam"
    },
    "Na Nhiên": {
        "uri": "Na%20Nhi%C3%AAn",
        "lat": "20.99600005",
        "lon": "105.80790272789886",
        "name": "Trường Đại học Khoa học Tự nhiên, 334, Đường Nguyễn Trãi, Thanh Xuân, Quận Thanh Xuân, Hà Nội, 1000001, Việt Nam"
    },
    "Nam Hà": {
        "uri": "Nam%20H%C3%A0",
        "lat": "18.3358904",
        "lon": "105.9003199",
        "name": "Nam Hà, Chí Tru, Hà Tĩnh, 450000, Việt Nam"
    },
    "Nghi Sơn": {
        "uri": "Nghi%20S%C6%A1n"
    },
    "Nho Quan": {
        "uri": "Nho%20Quan",
        "lat": "20.31154495",
        "lon": "105.74858793941853",
        "name": "Nho Quan, Tỉnh Ninh Bình, Việt Nam"
    },
    "Nhu Xuan": {
        "uri": "Nhu%20Xuan",
        "lat": "19.5979665",
        "lon": "105.38746887021276",
        "name": "Như Xuân, Tỉnh Thanh Hóa, Việt Nam"
    },
    "Ninh Mã (1)": {
        "uri": "Ninh%20M%C3%A3%20(1)"
    },
    "Pac Boc": {
        "uri": "Pac%20Boc"
    },
    "Pac Tà": {
        "uri": "Pac%20T%C3%A0"
    },
    "Phan Lý": {
        "uri": "Phan%20L%C3%BD"
    },
    "Phước Hòa": {
        "uri": "Ph%C6%B0%E1%BB%9Bc%20H%C3%B2a",
        "lat": "10.5365477",
        "lon": "107.0719464",
        "name": "Phường Phước Hòa, Thị xã Phú Mỹ, Tỉnh Bà Rịa-Vũng Tàu, Việt Nam"
    },
    "Plei Ken Ngo (1)": {
        "uri": "Plei%20Ken%20Ngo%20(1)"
    },
    "Plei Klane Kla": {
        "uri": "Plei%20Klane%20Kla"
    },
    "Plei Rơngol Dơgrong": {
        "uri": "Plei%20R%C6%A1ngol%20D%C6%A1grong"
    },
    "Quäng Nhiêu (1)": {
        "uri": "Qu%C3%A4ng%20Nhi%C3%AAu%20(1)"
    },
    "Qui Nhon": {
        "uri": "Qui%20Nhon",
        "lat": "13.770409",
        "lon": "109.232667",
        "name": "Quy Nhơn, Tỉnh Bình Định, Việt Nam"
    },
    "Sang Huân": {
        "uri": "Sang%20Hu%C3%A2n"
    },
    "Sơn La": {
        "uri": "S%C6%A1n%20La",
        "lat": "21.1508502",
        "lon": "103.8884294",
        "name": "Tỉnh Sơn La, Việt Nam"
    },
    "Sông Mã": {
        "uri": "S%C3%B4ng%20M%C3%A3",
        "lat": "20.5285566",
        "lon": "104.5654786",
        "name": "Sông Mã, 41312, Việt Nam"
    },
    "Tam Quan": {
        "uri": "Tam%20Quan",
        "lat": "14.548737",
        "lon": "109.0469383",
        "name": "Tam Quan, Hoài Nhơn, Tỉnh Bình Định, Việt Nam"
    },
    "Thôn Hai (3)": {
        "uri": "Th%C3%B4n%20Hai%20(3)",
        "lat": "10.890267",
        "lon": "107.94623",
        "name": "Thôn Hai, Hàm Thuận Nam, Tỉnh Bình Thuận, Việt Nam"
    },
    "Thôn Thái Dương Hạ (1)": {
        "uri": "Th%C3%B4n%20Th%C3%A1i%20D%C6%B0%C6%A1ng%20H%E1%BA%A1%20(1)",
        "lat": "22.8462698",
        "lon": "105.0078754",
        "name": "Đường 3 Tháng 2, Thái Hà, Quang Trung, Thành phố Hà Giang, Tỉnh Hà Giang, 20152, Việt Nam"
    },
    "Tiên Yên (1)": {
        "uri": "Ti%C3%AAn%20Y%C3%AAn%20(1)",
        "lat": "21.3316482",
        "lon": "107.4003613",
        "name": "Tiên Yên, Tỉnh Quảng Ninh, Việt Nam"
    },
    "Tương Dương": {
        "uri": "T%C6%B0%C6%A1ng%20D%C6%B0%C6%A1ng",
        "lat": "19.320369200000002",
        "lon": "104.62796921092348",
        "name": "Tương Dương, Tỉnh Nghệ An, Việt Nam"
    },
    "Tuyết Ðiểm (3)": {
        "uri": "Tuy%E1%BA%BFt%20%C3%90i%E1%BB%83m%20(3)",
        "lat": "10.8348454",
        "lon": "106.5976896",
        "name": "tuyết nhung, Đường Phan Văn Dới, Xã Bà Điểm, Huyện Hóc Môn, 71509, Việt Nam"
    },
    "Uông Bí": {
        "uri": "U%C3%B4ng%20B%C3%AD",
        "lat": "21.0414692",
        "lon": "106.7740261",
        "name": "Uông Bí, Tỉnh Quảng Ninh, 02306, Việt Nam"
    },
    "Van Lý (1)": {
        "uri": "Van%20L%C3%BD%20(1)",
        "lat": "21.0303219",
        "lon": "105.8317607",
        "name": "Phố Lý Văn Phúc, Điện Biên, Phường Điện Biên, Quận Ba Đình, Hà Nội, 118508, Việt Nam"
    },
    "Viên Minh (2)": {
        "uri": "Vi%C3%AAn%20Minh%20(2)"
    },
    "Vo Dat": {
        "uri": "Vo%20Dat",
        "lat": "20.8625214",
        "lon": "106.6949477",
        "name": "Võ Thị Sáu, Phường Máy Tơ, Quận Ngô Quyền, Hải Phòng, 04000-05000, Việt Nam"
    },
    "Xen Con": {
        "uri": "Xen%20Con"
    },
    "Xóm Con": {
        "uri": "X%C3%B3m%20Con"
    },
    "Xóm Côn Si": {
        "uri": "X%C3%B3m%20C%C3%B4n%20Si"
    },
    "Yên Bái": {
        "uri": "Y%C3%AAn%20B%C3%A1i"
    },
    "A Yun Pa": {
        "uri": "A%20Yun%20Pa",
        "lat": "13.4005198",
        "lon": "108.4467165",
        "name": "Ayun Pa, Tỉnh Gia Lai, Việt Nam"
    },
    "Ai Yin Young": {
        "uri": "Ai%20Yin%20Young"
    },
    "An Biên": {
        "uri": "An%20Bi%C3%AAn"
    },
    "An Khê": {
        "uri": "An%20Kh%C3%AA"
    },
    "An Lão": {
        "uri": "An%20L%C3%A3o",
        "lat": "20.8231712",
        "lon": "106.5582169",
        "name": "An Lão, Hải Phòng, 35999, Việt Nam"
    },
    "Ëp Bích Son": {
        "uri": "%C3%8Bp%20B%C3%ADch%20Son"
    },
    "Ap Ca Coi": {
        "uri": "Ap%20Ca%20Coi"
    },
    "Duc Mÿ": {
        "uri": "Duc%20M%C3%BF"
    },
    "Ấp Mới (1)": {
        "uri": "%E1%BA%A4p%20M%E1%BB%9Bi%20(1)"
    },
    "Ap Tan My": {
        "uri": "Ap%20Tan%20My"
    },
    "Ấp Thánh Hương": {
        "uri": "%E1%BA%A4p%20Th%C3%A1nh%20H%C6%B0%C6%A1ng",
        "lat": "10.5118196",
        "lon": "107.220351",
        "name": "Hương Lộ 8, Ấp Tây, Phước Hữu, Xã Long Phước, Thành phố Bà Rịa, Long Điền, Tỉnh Bà Rịa-Vũng Tàu, 064, Việt Nam"
    },
    "Ba Ðông": {
        "uri": "Ba%20%C3%90%C3%B4ng",
        "lat": "9.6785098",
        "lon": "106.5622294",
        "name": "Ba Động, Thị xã Duyên Hải, Trà Vinh, Việt Nam"
    },
    "Ba Khè": {
        "uri": "Ba%20Kh%C3%A8",
        "lat": "21.233932",
        "lon": "107.1712997",
        "name": "Khe Nà, Ba Chẽ, Tỉnh Quảng Ninh, Việt Nam"
    },
    "Ba Lang": {
        "uri": "Ba%20Lang"
    },
    "Phước Bình": {
        "uri": "Ph%C6%B0%E1%BB%9Bc%20B%C3%ACnh",
        "lat": "11.8032521",
        "lon": "106.9597081",
        "name": "Phước Bình, Phước Long, Tỉnh Bình Phước, 651, Việt Nam"
    },
    "Bai Thuong": {
        "uri": "Bai%20Thuong",
        "lat": "19.9043348",
        "lon": "105.46291629552427",
        "name": "Cảng hàng không Thọ Xuân, Quốc lộ 47, Sao Vàng, Huyện Thọ Xuân, Tỉnh Thanh Hóa, Việt Nam"
    },
    "Ban Ae Lai": {
        "uri": "Ban%20Ae%20Lai"
    },
    "Ban Ay Rieng": {
        "uri": "Ban%20Ay%20Rieng"
    },
    "Ban Bat": {
        "uri": "Ban%20Bat",
        "lat": "21.0147052",
        "lon": "105.9073475",
        "name": "Hẻm 531/16/89 Đường Bát Khối, Phường Thạch Bàn, Quận Long Biên, Hà Nội, 0610, Việt Nam"
    },
    "Ban Cha Hang": {
        "uri": "Ban%20Cha%20Hang"
    },
    "Bản Chêng Nươ": {
        "uri": "B%E1%BA%A3n%20Ch%C3%AAng%20N%C6%B0%C6%A1"
    },
    "Ban Coc": {
        "uri": "Ban%20Coc"
    },
    "Ban Cong Deng": {
        "uri": "Ban%20Cong%20Deng"
    },
    "Ban Duong": {
        "uri": "Ban%20Duong",
        "lat": "15.9204221",
        "lon": "108.2972568",
        "name": "Điện Dương, Thị xã Điện Bàn, Tỉnh Quảng Nam, 563868, Việt Nam"
    },
    "Bän Kö Ôi": {
        "uri": "B%C3%A4n%20K%C3%B6%20%C3%94i"
    },
    "Bän La": {
        "uri": "B%C3%A4n%20La",
        "lat": "10.5391015",
        "lon": "107.1297178",
        "name": "La Bàn, Thị xã Phú Mỹ, Tỉnh Bà Rịa-Vũng Tàu, Việt Nam"
    },
    "Bän Mông": {
        "uri": "B%C3%A4n%20M%C3%B4ng",
        "lat": "22.5492282",
        "lon": "104.281526",
        "name": "So H’mong Homestay ( the real place !!!!), Phố Na Thá, Bản Phố, Bắc Hà, Tỉnh Lào Cai, Việt Nam"
    },
    "Bän Na Nhiu": {
        "uri": "B%C3%A4n%20Na%20Nhiu"
    },
    "Bän Na Pheo": {
        "uri": "B%C3%A4n%20Na%20Pheo"
    },
    "Ban Re": {
        "uri": "Ban%20Re",
        "lat": "22.7625053",
        "lon": "106.0045375",
        "name": "Sông Rẻ Dào, Thông Nông, Hà Quảng, Tỉnh Cao Bằng, Việt Nam"
    },
    "Bän Thuy": {
        "uri": "B%C3%A4n%20Thuy"
    },
    "Bän Veng": {
        "uri": "B%C3%A4n%20Veng"
    },
    "Ban Xã Thu": {
        "uri": "Ban%20X%C3%A3%20Thu",
        "lat": "15.8639285",
        "lon": "108.2548141",
        "name": "Sông Thu Bồn, Thị xã Điện Bàn, Tỉnh Quảng Nam, 560000, Việt Nam"
    },
    "Bän Xen Con": {
        "uri": "B%C3%A4n%20Xen%20Con"
    },
    "Bän Xèo": {
        "uri": "B%C3%A4n%20X%C3%A8o",
        "lat": "10.0274715",
        "lon": "105.6092314",
        "name": "Ban Xeo, Tĩnh lộ 923, Phong Điền, Thành phố Cần Thơ, Việt Nam"
    },
    "Bang Beng": {
        "uri": "Bang%20Beng"
    },
    "Bau Môn": {
        "uri": "Bau%20M%C3%B4n",
        "lat": "16.691064",
        "lon": "107.4047734967742",
        "name": "Bàu Môn, Phong Điền, Thừa Thiên Huế, Việt Nam"
    },
    "Bich Thi": {
        "uri": "Bich%20Thi"
    },
    "Binh An": {
        "uri": "Binh%20An",
        "lat": "15.3273478",
        "lon": "108.6039887",
        "name": "Bình An, Bình Sơn, Tỉnh Quảng Ngãi, Việt Nam"
    },
    "Bình Long": {
        "uri": "B%C3%ACnh%20Long",
        "lat": "11.6511751",
        "lon": "106.6070795",
        "name": "Bình Long, Tỉnh Bình Phước, +84028, Việt Nam"
    },
    "Bình Thånh": {
        "uri": "B%C3%ACnh%20Th%C3%A5nh",
        "lat": "13.5860315",
        "lon": "109.2064614",
        "name": "Bình Thạnh, Thị xã Sông Cầu, Tỉnh Phú Yên, Việt Nam"
    },
    "Bo Ho Su": {
        "uri": "Bo%20Ho%20Su"
    },
    "Buôn Phoke": {
        "uri": "Bu%C3%B4n%20Phoke"
    },
    "Buôn Ya Soup": {
        "uri": "Bu%C3%B4n%20Ya%20Soup"
    },
    "Cái Bè": {
        "uri": "C%C3%A1i%20B%C3%A8",
        "lat": "10.404710999999999",
        "lon": "105.94811967983418",
        "name": "Huyện Cái Bè, Tỉnh Tiền Giang, Việt Nam"
    },
    "Cẩm Phả": {
        "uri": "C%E1%BA%A9m%20Ph%E1%BA%A3"
    },
    "Canh Trap": {
        "uri": "Canh%20Trap",
        "lat": "12.4883801",
        "lon": "108.0311534",
        "name": "Buôn Trấp, Krông Ana, Đắk Lắk, Việt Nam"
    },
    "Cao Lãnh": {
        "uri": "Cao%20L%C3%A3nh",
        "lat": "10.4620322",
        "lon": "105.6357948",
        "name": "Thành phố Cao Lãnh, Đồng Tháp, Việt Nam"
    },
    "Cao Quán": {
        "uri": "Cao%20Qu%C3%A1n",
        "lat": "22.797171",
        "lon": "106.760716",
        "name": "Bản Nà Quán, Hạ Lang, Tỉnh Cao Bằng, Việt Nam"
    },
    "Cầu Thượng": {
        "uri": "C%E1%BA%A7u%20Th%C6%B0%E1%BB%A3ng"
    },
    "Chà Nòi": {
        "uri": "Ch%C3%A0%20N%C3%B2i"
    },
    "Chán An": {
        "uri": "Ch%C3%A1n%20An",
        "lat": "20.8454557",
        "lon": "106.6574522",
        "name": "Cầu An Đồng, Quận Lê Chân, Hải Phòng, 18000, Việt Nam"
    },
    "Chau Phú": {
        "uri": "Chau%20Ph%C3%BA",
        "lat": "10.5719",
        "lon": "105.16353267221714",
        "name": "Châu Phú, Tỉnh An Giang, Việt Nam"
    },
    "Chau Thanh": {
        "uri": "Chau%20Thanh"
    },
    "Chi Nê": {
        "uri": "Chi%20N%C3%AA",
        "lat": "20.4992405",
        "lon": "105.7802998",
        "name": "Chi Nê, Lạc Thủy, Hòa Bình, Việt Nam"
    },
    "Chiêm Hóa": {
        "uri": "Chi%C3%AAm%20H%C3%B3a",
        "lat": "22.14925105",
        "lon": "105.30636016699103",
        "name": "Chiêm Hóa, Tỉnh Tuyên Quang, Việt Nam"
    },
    "Chiêng Pan": {
        "uri": "Chi%C3%AAng%20Pan"
    },
    "Con Chon": {
        "uri": "Con%20Chon"
    },
    "Con Houa": {
        "uri": "Con%20Houa",
        "lat": "22.1657828",
        "lon": "106.1481306",
        "name": "Con Houa, Na Rì, Tỉnh Bắc Kạn, Việt Nam"
    },
    "Cµ Chi": {
        "uri": "C%C2%B5%20Chi"
    },
    "Da Hòa": {
        "uri": "Da%20H%C3%B2a",
        "lat": "10.5298462",
        "lon": "106.4343765",
        "name": "Đá, Kính, Gạch Men Mỹ Thạch, Nguyễn Thông, Cống Bình Tâm, Xã Bình Tâm, Tân An, Tỉnh Long An, 870000, Việt Nam"
    },
    "Đà Nẵng": {
        "uri": "%C4%90%C3%A0%20N%E1%BA%B5ng",
        "lat": "16.068",
        "lon": "108.212",
        "name": "Đà Nẵng, Việt Nam"
    },
    "Dak Chat": {
        "uri": "Dak%20Chat"
    },
    "Dak Pek": {
        "uri": "Dak%20Pek"
    },
    "Dao Phu Qui": {
        "uri": "Dao%20Phu%20Qui"
    },
    "Ðèo Tay Chang": {
        "uri": "%C3%90%C3%A8o%20Tay%20Chang"
    },
    "Di Linh": {
        "uri": "Di%20Linh",
        "lat": "11.51763355",
        "lon": "108.10828963335224",
        "name": "Di Linh, Tỉnh Lâm Đồng, Việt Nam"
    },
    "Diem Phe": {
        "uri": "Diem%20Phe",
        "lat": "10.5297833",
        "lon": "106.4160023",
        "name": "Cà Phê Giải Khát Điểm Tâm Wifi Hội Quán Trẻ, Huỳnh Văn Tạo, Phường 3, Phường 2, Tân An, Tỉnh Long An, 870000, Việt Nam"
    },
    "Dinh Ðiền Dak Ménou": {
        "uri": "Dinh%20%C3%90i%E1%BB%81n%20Dak%20M%C3%A9nou"
    },
    "Ðông Cao": {
        "uri": "%C3%90%C3%B4ng%20Cao",
        "lat": "21.377306949999998",
        "lon": "105.89736878492292",
        "name": "Đông Cao, Tỉnh Thái Nguyên, 257229, Việt Nam"
    },
    "Ðồng Hới": {
        "uri": "%C3%90%E1%BB%93ng%20H%E1%BB%9Bi"
    },
    "Ðong Krola": {
        "uri": "%C3%90ong%20Krola"
    },
    "Dong Phu": {
        "uri": "Dong%20Phu"
    },
    "Ðông Sàng": {
        "uri": "%C3%90%C3%B4ng%20S%C3%A0ng"
    },
    "Ðông Tau": {
        "uri": "%C3%90%C3%B4ng%20Tau"
    },
    "Ðong Vang": {
        "uri": "%C3%90ong%20Vang",
        "lat": "19.415107",
        "lon": "105.518574",
        "name": "Đồng Văng, Nghĩa Đàn, Tỉnh Nghệ An, Việt Nam"
    },
    "Duc Lao": {
        "uri": "Duc%20Lao",
        "lat": "12.00594495",
        "lon": "107.50822566360377",
        "name": "Hồ Đak B'Lao, Kiến Đức, Đắk R'Lấp, Đắk Nông, Việt Nam"
    },
    "Duc Minh": {
        "uri": "Duc%20Minh"
    },
    "Duong Dong": {
        "uri": "Duong%20Dong",
        "lat": "10.2173048",
        "lon": "103.9589134",
        "name": "Dương Đông, Thành phố Phú Quốc, Kiên Giang, 922204, Việt Nam"
    },
    "Duong Long": {
        "uri": "Duong%20Long",
        "lat": "10.6413757",
        "lon": "106.5677208",
        "name": "Đường (Plv 12) Bá Giăng, Xã Phước Lý, Huyện Cần Giuộc, Tỉnh Long An, 850000, Việt Nam"
    },
    "Fac Ta": {
        "uri": "Fac%20Ta"
    },
    "Gia Nghĩa": {
        "uri": "Gia%20Ngh%C4%A9a"
    },
    "Gia Vuc": {
        "uri": "Gia%20Vuc",
        "lat": "20.8287008",
        "lon": "106.70846917542787",
        "name": "Trung tâm thông tin di động khu vực 5, Ngô Gia Tự, An Khê, Phường Đằng Giang, Quận Hải An, Hải Phòng, 18000, Việt Nam"
    },
    "Giang Muang Pho": {
        "uri": "Giang%20Muang%20Pho"
    },
    "Gò Công": {
        "uri": "G%C3%B2%20C%C3%B4ng"
    },
    "Gòranh": {
        "uri": "G%C3%B2ranh"
    },
    "Hà Giang": {
        "uri": "H%C3%A0%20Giang",
        "lat": "22.8264592",
        "lon": "104.9846342",
        "name": "Thành phố Hà Giang, Tỉnh Hà Giang, Việt Nam"
    },
    "Hà Tiên": {
        "uri": "H%C3%A0%20Ti%C3%AAn",
        "lat": "10.3828019",
        "lon": "104.4859503",
        "name": "Thành phố Hà Tiên, Kiên Giang, KP1, Việt Nam"
    },
    "Hải Dương": {
        "uri": "H%E1%BA%A3i%20D%C6%B0%C6%A1ng"
    },
    "Hàm Tân": {
        "uri": "H%C3%A0m%20T%C3%A2n",
        "lat": "10.7437653",
        "lon": "107.63356224337726",
        "name": "Huyện Hàm Tân, Tỉnh Bình Thuận, 800000, Việt Nam"
    },
    "Ham Thuan Bac": {
        "uri": "Ham%20Thuan%20Bac",
        "lat": "11.1550595",
        "lon": "108.10047235510345",
        "name": "Hàm Thuận Bắc, Tỉnh Bình Thuận, 80000, Việt Nam"
    },
    "Hàm Yên": {
        "uri": "H%C3%A0m%20Y%C3%AAn",
        "lat": "22.09549305",
        "lon": "105.0112213842072",
        "name": "Hàm Yên, Tỉnh Tuyên Quang, 305870, Việt Nam"
    },
    "Hau Chung": {
        "uri": "Hau%20Chung"
    },
    "Hau Nghia": {
        "uri": "Hau%20Nghia",
        "lat": "10.8947791",
        "lon": "106.3930829",
        "name": "Hậu Nghĩa, Đức Hòa, Tỉnh Long An, Việt Nam"
    },
    "Hòa Ða": {
        "uri": "H%C3%B2a%20%C3%90a"
    },
    "Hoài Nhon": {
        "uri": "Ho%C3%A0i%20Nhon"
    },
    "Hoang Xa": {
        "uri": "Hoang%20Xa"
    },
    "H÷ng Gai": {
        "uri": "H%C3%B7ng%20Gai"
    },
    "Huế": {
        "uri": "Hu%E1%BA%BF",
        "lat": "16.4638013",
        "lon": "107.5821911",
        "name": "Huế, Thừa Thiên Huế, Việt Nam"
    },
    "Kê Gà": {
        "uri": "K%C3%AA%20G%C3%A0"
    },
    "Kẻ Gi": {
        "uri": "K%E1%BA%BB%20Gi",
        "lat": "10.6577341",
        "lon": "107.7751996",
        "name": "La Gi, Phước Hội, Tân Long, La Gi, Tỉnh Bình Thuận, Việt Nam"
    },
    "Ke Phong": {
        "uri": "Ke%20Phong",
        "lat": "17.5552645",
        "lon": "106.11230409567074",
        "name": "Vườn quốc gia Phong Nha - Kẻ Bàng, Tỉnh Quảng Bình, 084, Việt Nam"
    },
    "Kham Duc": {
        "uri": "Kham%20Duc",
        "lat": "15.4399678",
        "lon": "107.7898857",
        "name": "Khâm Đức, Phước Sơn, Tỉnh Quảng Nam, Việt Nam"
    },
    "Khanh Vinh": {
        "uri": "Khanh%20Vinh",
        "lat": "12.29543295",
        "lon": "108.82501321642326",
        "name": "Khánh Vĩnh, Khánh Hòa, Việt Nam"
    },
    "Khau Khang": {
        "uri": "Khau%20Khang"
    },
    "Khe Sanh": {
        "uri": "Khe%20Sanh",
        "lat": "16.6295919",
        "lon": "106.7376807",
        "name": "Khe Sanh, Huyện Hướng Hoá, Quảng Trị, Việt Nam"
    },
    "Kiêm Long": {
        "uri": "Ki%C3%AAm%20Long",
        "lat": "21.0400533",
        "lon": "105.8504266",
        "name": "Cầu Long Biên, Phường Đồng Xuân, Hoàn Kiếm, Hà Nội, 100999, Việt Nam"
    },
    "Kon Braih": {
        "uri": "Kon%20Braih"
    },
    "Kon Ko Dô": {
        "uri": "Kon%20Ko%20D%C3%B4"
    },
    "Lagi": {
        "uri": "Lagi",
        "lat": "10.6518467",
        "lon": "107.802188",
        "name": "Hòn Bà (Lagi), Tỉnh Bình Thuận, Việt Nam"
    },
    "Làng Cay": {
        "uri": "L%C3%A0ng%20Cay",
        "lat": "19.390805",
        "lon": "105.570244",
        "name": "Làng Cay, Nghĩa Đàn, Tỉnh Nghệ An, Việt Nam"
    },
    "Làng Cha": {
        "uri": "L%C3%A0ng%20Cha"
    },
    "Lang Den": {
        "uri": "Lang%20Den"
    },
    "Lang Duong": {
        "uri": "Lang%20Duong",
        "lat": "21.0064568",
        "lon": "105.8160202",
        "name": "Láng, Đường Láng, Phường Thịnh Quang, Quận Đống Đa, Hà Nội, 123025, Việt Nam"
    },
    "Lang Ke Man": {
        "uri": "Lang%20Ke%20Man"
    },
    "Làng Mên": {
        "uri": "L%C3%A0ng%20M%C3%AAn"
    },
    "Làng Ông": {
        "uri": "L%C3%A0ng%20%C3%94ng",
        "lat": "16.74799",
        "lon": "107.2750667",
        "name": "Thi Ông, Hải Lăng, Quảng Trị, Việt Nam"
    },
    "Làng Pho Rang": {
        "uri": "L%C3%A0ng%20Pho%20Rang",
        "lat": "21.0681453",
        "lon": "105.7616596",
        "name": "Cơm rang, Đường làng, Phường Thụy Phương, Bắc Từ Liêm, Quận Bắc Từ Liêm, Hà Nội, 04, Việt Nam"
    },
    "Làng Rao": {
        "uri": "L%C3%A0ng%20Rao"
    },
    "Lang Ro": {
        "uri": "Lang%20Ro",
        "lat": "21.8313402",
        "lon": "106.7618549",
        "name": "Thôn Rọ Chải, Thôn Pá Lải, Xã Mai Pha, Thành phố Lạng Sơn, Tỉnh Lạng Sơn, 0253, Việt Nam"
    },
    "Làng Than": {
        "uri": "L%C3%A0ng%20Than"
    },
    "Lao Phou Van": {
        "uri": "Lao%20Phou%20Van"
    },
    "Long Châu": {
        "uri": "Long%20Ch%C3%A2u",
        "lat": "10.7898829",
        "lon": "105.3251467",
        "name": "Long Châu, Huyện Hồng Ngự, Đồng Tháp, Việt Nam"
    },
    "Long Xuyên": {
        "uri": "Long%20Xuy%C3%AAn"
    },
    "Loung Hoa": {
        "uri": "Loung%20Hoa"
    },
    "Luân Châu": {
        "uri": "Lu%C3%A2n%20Ch%C3%A2u",
        "lat": "21.9688889",
        "lon": "103.1522222",
        "name": "Bản Huổi Luân, Xã Lay Nưa, Thị xã Mường Lay, Tỉnh Điện Biên, Việt Nam"
    },
    "Luc Nam": {
        "uri": "Luc%20Nam",
        "lat": "21.304446249999998",
        "lon": "106.40238937066697",
        "name": "Lục Nam, Tỉnh Bắc Giang, Việt Nam"
    },
    "Ma Li Chai": {
        "uri": "Ma%20Li%20Chai"
    },
    "Mang Ri": {
        "uri": "Mang%20Ri",
        "lat": "10.4992327",
        "lon": "107.1602906",
        "name": "Cách Mạng Tháng Tám, Hương Tân, Phường Long Hương, Thành phố Bà Rịa, Long Điền, Tỉnh Bà Rịa-Vũng Tàu, 78106, Việt Nam"
    },
    "Móng Cái": {
        "uri": "M%C3%B3ng%20C%C3%A1i",
        "lat": "21.5290279",
        "lon": "107.9691594",
        "name": "Móng Cái, Tỉnh Quảng Ninh, Việt Nam"
    },
    "Mui Chon Dong": {
        "uri": "Mui%20Chon%20Dong"
    },
    "Mui da Nang": {
        "uri": "Mui%20da%20Nang",
        "lat": "16.1166482",
        "lon": "107.9606299",
        "name": "Hầm Mũi Trâu, Hòa Vang, Đà Nẵng, Việt Nam"
    },
    "Mui Lay": {
        "uri": "Mui%20Lay"
    },
    "Muong Hin": {
        "uri": "Muong%20Hin",
        "lat": "22.5394444",
        "lon": "102.5488889",
        "name": "Hét Hin, Xã Mường Tè, Huyện Mường Tè, Tỉnh Lai Châu, Việt Nam"
    },
    "Mương Hinh": {
        "uri": "M%C6%B0%C6%A1ng%20Hinh",
        "lat": "22.1968608",
        "lon": "102.45527811263189",
        "name": "Đài Phát thanh và Truyền hình huyện Mường Nhé, Quốc lộ 4H, Bản Mường Nhé, Mường Nhé, Tỉnh Điện Biên, Việt Nam"
    },
    "Muong Lat": {
        "uri": "Muong%20Lat",
        "lat": "20.5275896",
        "lon": "104.602002",
        "name": "Mường Lát, Huyện Mường Lát, Tỉnh Thanh Hóa, Việt Nam"
    },
    "Muong Lèo": {
        "uri": "Muong%20L%C3%A8o",
        "lat": "22.3340763",
        "lon": "103.8327974",
        "name": "Tàu hỏa leo núi Mường Hoa, Đường Thác Bạc, Phan Si Păng, Sa Pa, Tỉnh Lào Cai, 333320, Việt Nam"
    },
    "Na Ac": {
        "uri": "Na%20Ac",
        "lat": "21.0325519",
        "lon": "105.7833819",
        "name": "AC Building, Ngõ 78 Trần Quốc Vượng, Quận Cầu Giấy, Hà Nội, 122863, Việt Nam"
    },
    "Na Anh": {
        "uri": "Na%20Anh",
        "lat": "20.9542868",
        "lon": "105.8378197",
        "name": "anh, Đường Tựu Liệt, Huyện Thanh Trì, Hà Nội, 100000, Việt Nam"
    },
    "Na Bioc": {
        "uri": "Na%20Bioc"
    },
    "Na Hang": {
        "uri": "Na%20Hang"
    },
    "Na Koc": {
        "uri": "Na%20Koc"
    },
    "Na Loung": {
        "uri": "Na%20Loung"
    },
    "Na Thiêm": {
        "uri": "Na%20Thi%C3%AAm",
        "lat": "21.0190324",
        "lon": "105.8329788",
        "name": "Ngõ 221 Phố Khâm Thiêm, Phường Thổ Quan, Quận Đống Đa, Hà Nội, +844, Việt Nam"
    },
    "Na Young": {
        "uri": "Na%20Young"
    },
    "Nam Bai": {
        "uri": "Nam%20Bai",
        "lat": "15.9318857",
        "lon": "108.5281672",
        "name": "Bai Huong, Thành phố Hội An, Tỉnh Quảng Nam, Việt Nam"
    },
    "Nam Bôn": {
        "uri": "Nam%20B%C3%B4n"
    },
    "Nam Dong": {
        "uri": "Nam%20Dong",
        "lat": "16.11828525",
        "lon": "107.68430891577891",
        "name": "Nam Đông, Thừa Thiên Huế, Việt Nam"
    },
    "Nam Khap Ban Tang": {
        "uri": "Nam%20Khap%20Ban%20Tang"
    },
    "Nam Lang": {
        "uri": "Nam%20Lang",
        "lat": "15.853532",
        "lon": "107.474699",
        "name": "Lăng, Tây Giang, Tỉnh Quảng Nam, Việt Nam"
    },
    "Nam Nhung": {
        "uri": "Nam%20Nhung"
    },
    "Nam Ric": {
        "uri": "Nam%20Ric"
    },
    "Nhà Bè": {
        "uri": "Nh%C3%A0%20B%C3%A8",
        "lat": "10.650967049999998",
        "lon": "106.72638246812322",
        "name": "Huyện Nhà Bè, Việt Nam"
    },
    "Nha Trang": {
        "uri": "Nha%20Trang",
        "lat": "12.2431693",
        "lon": "109.1898675",
        "name": "Nha Trang, Khánh Hòa, Việt Nam"
    },
    "Ninh Bình": {
        "uri": "Ninh%20B%C3%ACnh",
        "lat": "20.2545421",
        "lon": "105.9764854",
        "name": "Ninh Bình, Tỉnh Ninh Bình, 08000, Việt Nam"
    },
    "Ninh Cường": {
        "uri": "Ninh%20C%C6%B0%E1%BB%9Dng",
        "lat": "20.1993593",
        "lon": "106.2058389",
        "name": "Ninh Cường, Trực Ninh, Tỉnh Nam Định, Việt Nam"
    },
    "Ninh Giang": {
        "uri": "Ninh%20Giang",
        "lat": "20.75314105",
        "lon": "106.33174108024527",
        "name": "Ninh Giang, Hai Duong city, Việt Nam"
    },
    "Ninh Hòa": {
        "uri": "Ninh%20H%C3%B2a",
        "lat": "12.548103600000001",
        "lon": "109.06206698803544",
        "name": "Ninh Hòa, Khánh Hòa, Việt Nam"
    },
    "Nong Truong": {
        "uri": "Nong%20Truong",
        "lat": "10.6358399",
        "lon": "107.134155",
        "name": "Nông Trường, Phường Hắc Dịch, Thị xã Phú Mỹ, Tỉnh Bà Rịa-Vũng Tàu, Việt Nam"
    },
    "Ô Môn": {
        "uri": "%C3%94%20M%C3%B4n",
        "lat": "10.1135346",
        "lon": "105.6207657",
        "name": "Quận Ô Môn, Thành phố Cần Thơ, 90000, Việt Nam"
    },
    "Pa Kha": {
        "uri": "Pa%20Kha",
        "lat": "12.7092249",
        "lon": "108.3122572",
        "name": "QT Lê Thị Tố Kha 09, 19, 689, Phước An, Krông Pắk, Đắk Lắk, Việt Nam"
    },
    "Pac Tha": {
        "uri": "Pac%20Tha"
    },
    "Pao Boc": {
        "uri": "Pao%20Boc"
    },
    "Phä Låi": {
        "uri": "Ph%C3%A4%20L%C3%A5i",
        "lat": "21.112229",
        "lon": "106.3097353",
        "name": "Phả Lại, Chí Linh, Hai Duong city, Việt Nam"
    },
    "Phan Lý Chàm": {
        "uri": "Phan%20L%C3%BD%20Ch%C3%A0m",
        "lat": "11.266367",
        "lon": "108.6685115",
        "name": "Cao tốc Vĩnh Hảo - Phan Thiết, Tuy Tĩnh Chàm, Tuy Phong, Tỉnh Bình Thuận, Việt Nam"
    },
    "Phan Rang": {
        "uri": "Phan%20Rang",
        "lat": "11.5769829",
        "lon": "108.9865391",
        "name": "Phan Rang–Tháp Chàm, Tỉnh Ninh Thuận, Việt Nam"
    },
    "Phlen Loung": {
        "uri": "Phlen%20Loung"
    },
    "Pho Trach": {
        "uri": "Pho%20Trach"
    },
    "Phò Trì": {
        "uri": "Ph%C3%B2%20Tr%C3%AC"
    },
    "Phú An": {
        "uri": "Ph%C3%BA%20An",
        "lat": "13.8984989",
        "lon": "108.9449602",
        "name": "Phú An, Tây Sơn, Tỉnh Bình Định, Việt Nam"
    },
    "Phù Cát": {
        "uri": "Ph%C3%B9%20C%C3%A1t",
        "lat": "14.061683500000001",
        "lon": "109.0669996788363",
        "name": "Phù Cát, Tỉnh Bình Định, Việt Nam"
    },
    "Phu Chau": {
        "uri": "Phu%20Chau",
        "lat": "10.5719",
        "lon": "105.16353267221714",
        "name": "Châu Phú, Tỉnh An Giang, Việt Nam"
    },
    "Phu Giáo": {
        "uri": "Phu%20Gi%C3%A1o"
    },
    "Phù Hiên": {
        "uri": "Ph%C3%B9%20Hi%C3%AAn"
    },
    "Phu Lang Thuong": {
        "uri": "Phu%20Lang%20Thuong",
        "lat": "21.02381365",
        "lon": "105.80096242238099",
        "name": "Ao Phu, Phường Láng Thượng, Quận Đống Đa, Hà Nội, Việt Nam"
    },
    "Phu Nhi": {
        "uri": "Phu%20Nhi",
        "lat": "10.6805197",
        "lon": "106.7481134",
        "name": "Nhi, 187, Dương Huỳnh Tấn Phát, Phú Xuân, Huyện Nhà Bè, Việt Nam"
    },
    "Phµ Nho Quan": {
        "uri": "Ph%C2%B5%20Nho%20Quan",
        "lat": "20.2101915",
        "lon": "105.7960289",
        "name": "QL 45, Phú Long, Phố Rịa, Nho Quan, Tỉnh Ninh Bình, Việt Nam"
    },
    "Phú Nhơn": {
        "uri": "Ph%C3%BA%20Nh%C6%A1n",
        "lat": "13.95912425",
        "lon": "109.04963163925903",
        "name": "Sân bay Phù Cát, Quốc lộ 19B, Tây Sơn, An Nhơn, Tỉnh Bình Định, Việt Nam"
    },
    "Trà Vinh": {
        "uri": "Tr%C3%A0%20Vinh",
        "lat": "9.7704606",
        "lon": "106.3563806",
        "name": "Trà Vinh, Việt Nam"
    },
    "Phu Xuan Ha": {
        "uri": "Phu%20Xuan%20Ha"
    },
    "Phúc Thành": {
        "uri": "Ph%C3%BAc%20Th%C3%A0nh"
    },
    "Phúc Yên": {
        "uri": "Ph%C3%BAc%20Y%C3%AAn",
        "lat": "21.31434695",
        "lon": "105.73231419597016",
        "name": "Phúc Yên, Tỉnh Vĩnh Phúc, 84211, Việt Nam"
    },
    "Phước Lãnh (1)": {
        "uri": "Ph%C6%B0%E1%BB%9Bc%20L%C3%A3nh%20(1)"
    },
    "Phuong Tri": {
        "uri": "Phuong%20Tri"
    },
    "Plei Doch": {
        "uri": "Plei%20Doch"
    },
    "Plei Khoie": {
        "uri": "Plei%20Khoie"
    },
    "Plei Kuel": {
        "uri": "Plei%20Kuel"
    },
    "Plei Morr": {
        "uri": "Plei%20Morr"
    },
    "Plây Cu": {
        "uri": "Pl%C3%A2y%20Cu"
    },
    "Plei Cần": {
        "uri": "Plei%20C%E1%BA%A7n",
        "lat": "14.707204",
        "lon": "107.6946733",
        "name": "Plei Cần, Huyện Ngọc Hồi, Tỉnh Kon Tum, Việt Nam"
    },
    "Poun Loung": {
        "uri": "Poun%20Loung"
    },
    "Quân Bác": {
        "uri": "Qu%C3%A2n%20B%C3%A1c",
        "lat": "21.0487039",
        "lon": "105.78566318063667",
        "name": "Học viện Kĩ thuật Quân sự, 236, Ngõ 234 Đường Hoàng Quốc Việt, Phường Cổ Nhuế 1, Quận Bắc Từ Liêm, Hà Nội, 122000, Việt Nam"
    },
    "Cà Mau": {
        "uri": "C%C3%A0%20Mau",
        "lat": "9.0875429",
        "lon": "105.032047",
        "name": "Tỉnh Cà Mau, Việt Nam"
    },
    "Quần Phương Hạ": {
        "uri": "Qu%E1%BA%A7n%20Ph%C6%B0%C6%A1ng%20H%E1%BA%A1"
    },
    "Quan Phuong Trung Trai": {
        "uri": "Quan%20Phuong%20Trung%20Trai"
    },
    "Quang Ðâu": {
        "uri": "Quang%20%C3%90%C3%A2u"
    },
    "Quang Hoai": {
        "uri": "Quang%20Hoai",
        "lat": "14.4536052",
        "lon": "109.1142347",
        "name": "Diệu Quang, Hoài Nhơn, Tỉnh Bình Định, Việt Nam"
    },
    "Quí Châu": {
        "uri": "Qu%C3%AD%20Ch%C3%A2u",
        "lat": "13.7769729",
        "lon": "109.2265956",
        "name": "Phan Bội Châu, Quy Nhơn, Tỉnh Bình Định, 591300, Việt Nam"
    },
    "Quinh Son": {
        "uri": "Quinh%20Son"
    },
    "Sa Ðéc": {
        "uri": "Sa%20%C3%90%C3%A9c",
        "lat": "10.3162911",
        "lon": "105.6988291",
        "name": "Sa Đéc, Việt Nam"
    },
    "Sa Huþnh": {
        "uri": "Sa%20Hu%C3%BEnh"
    },
    "Sa Thay": {
        "uri": "Sa%20Thay"
    },
    "Son Hoa": {
        "uri": "Son%20Hoa",
        "lat": "13.2054008",
        "lon": "108.98742535620418",
        "name": "Sơn Hòa, Tỉnh Phú Yên, 57000, Việt Nam"
    },
    "Suvui": {
        "uri": "Suvui"
    },
    "Tân An": {
        "uri": "T%C3%A2n%20An",
        "lat": "10.5359654",
        "lon": "106.4047541",
        "name": "Tân An, Tỉnh Long An, Việt Nam"
    },
    "Tan An Thon": {
        "uri": "Tan%20An%20Thon",
        "lat": "20.9069073",
        "lon": "106.4003777",
        "name": "Song Động, Tân An, Huyện Thanh Hà, Hai Duong city, 17000, Việt Nam"
    },
    "Tân Uyên": {
        "uri": "T%C3%A2n%20Uy%C3%AAn"
    },
    "Tap Phúc": {
        "uri": "Tap%20Ph%C3%BAc",
        "lat": "21.3100499",
        "lon": "105.5922906",
        "name": "Hà Huy Tập, Tích Sơn, Vĩnh Yên, Tỉnh Vĩnh Phúc, 280000, Việt Nam"
    },
    "Tây Ninh": {
        "uri": "T%C3%A2y%20Ninh",
        "lat": "11.404629",
        "lon": "106.0033909",
        "name": "Tỉnh Tây Ninh, Việt Nam"
    },
    "Tay Phu": {
        "uri": "Tay%20Phu",
        "lat": "13.8908727",
        "lon": "108.8945446",
        "name": "Tây Phú, Tây Sơn, Tỉnh Bình Định, Việt Nam"
    },
    "Tchoung Sao": {
        "uri": "Tchoung%20Sao"
    },
    "Thái Bình": {
        "uri": "Th%C3%A1i%20B%C3%ACnh",
        "lat": "20.5296832",
        "lon": "106.3876068",
        "name": "Tỉnh Thái Bình, Việt Nam"
    },
    "Thái Nguyên": {
        "uri": "Th%C3%A1i%20Nguy%C3%AAn"
    },
    "Than Poun": {
        "uri": "Than%20Poun"
    },
    "Thanh Hóa": {
        "uri": "Thanh%20H%C3%B3a",
        "lat": "20.1071694",
        "lon": "105.2124457",
        "name": "Tỉnh Thanh Hóa, Việt Nam"
    },
    "Thoi Thuan": {
        "uri": "Thoi%20Thuan"
    },
    "Thôn Ðô Vinh": {
        "uri": "Th%C3%B4n%20%C3%90%C3%B4%20Vinh",
        "lat": "21.03828665",
        "lon": "105.81235477043201",
        "name": "Vien kien truc qui hoach do thi va nong thon, 389, Phố Đội Cấn, Phường Vĩnh Phúc, Phường Liễu Giai, Quận Ba Đình, Hà Nội, 11150, Việt Nam"
    },
    "Thôn Khe Xêng": {
        "uri": "Th%C3%B4n%20Khe%20X%C3%AAng"
    },
    "Thôn Lạc Nghiệp": {
        "uri": "Th%C3%B4n%20L%E1%BA%A1c%20Nghi%E1%BB%87p",
        "lat": "10.0349637",
        "lon": "105.7789248",
        "name": "Bộ nông nghiệp phát triển nông thôn, Lý Tự Trọng, Quận Ninh Kiều, Thành phố Cần Thơ, 102000, Việt Nam"
    },
    "Thôn Phú An": {
        "uri": "Th%C3%B4n%20Ph%C3%BA%20An",
        "lat": "11.6544781",
        "lon": "108.3044168",
        "name": "Thôn Phú An, Phú An, Đức Trọng, Tỉnh Lâm Đồng, Việt Nam"
    },
    "Thôn Sông Pha": {
        "uri": "Th%C3%B4n%20S%C3%B4ng%20Pha",
        "lat": "10.5875883",
        "lon": "107.1471517",
        "name": "Bà Rịa - Sông Pha - Sông Xoài, Tân Phú, Xã Châu Pha, Thị xã Phú Mỹ, Tỉnh Bà Rịa-Vũng Tàu, Việt Nam"
    },
    "Thôn Thái An": {
        "uri": "Th%C3%B4n%20Th%C3%A1i%20An",
        "lat": "21.1127666",
        "lon": "106.3931349",
        "name": "Bot công an ( 20 thái học 2), Nguyễn Thái Học, Ninh Chấp, Sao Đỏ, Thôn Đại, Chí Linh, Hai Duong city, Việt Nam"
    },
    "Thuan Nghiep": {
        "uri": "Thuan%20Nghiep",
        "lat": "10.62017295",
        "lon": "107.58413768421775",
        "name": "Cụm Công nghiệp Thắng Hải, Huyện Hàm Tân, Tỉnh Bình Thuận, Việt Nam"
    },
    "Thượng Ðưc": {
        "uri": "Th%C6%B0%E1%BB%A3ng%20%C3%90%C6%B0c"
    },
    "Thuy U": {
        "uri": "Thuy%20U"
    },
    "Tié Co": {
        "uri": "Ti%C3%A9%20Co",
        "lat": "20.9683651",
        "lon": "106.502686",
        "name": "河海鐵路, Huyện An Dương, Phú Thái, Kim Thành, Hai Duong city, Việt Nam"
    },
    "Huyện Tiên Phước": {
        "uri": "Huy%E1%BB%87n%20Ti%C3%AAn%20Ph%C6%B0%E1%BB%9Bc"
    },
    "Tinh Bien": {
        "uri": "Tinh%20Bien",
        "lat": "10.55794285",
        "lon": "104.99147363039481",
        "name": "Tịnh Biên, Tỉnh An Giang, Việt Nam"
    },
    "Tou Rout": {
        "uri": "Tou%20Rout"
    },
    "Trà Mi": {
        "uri": "Tr%C3%A0%20Mi",
        "lat": "10.3864797",
        "lon": "106.5004611",
        "name": "Sông Trà, Chợ Gạo, Huyện Chợ Gạo, Tỉnh Tiền Giang, 861026, Việt Nam"
    },
    "Trà Ôn": {
        "uri": "Tr%C3%A0%20%C3%94n",
        "lat": "9.987825749999999",
        "lon": "106.00696112512156",
        "name": "Trà Ôn, Tỉnh Vĩnh Long, Việt Nam"
    },
    "Trai Ha Kau": {
        "uri": "Trai%20Ha%20Kau",
        "lat": "20.723013",
        "lon": "105.7665074",
        "name": "Trại Hà, Mỹ Đức, Hà Nội, Việt Nam"
    },
    "Tri Lễ": {
        "uri": "Tri%20L%E1%BB%85",
        "lat": "21.7648069",
        "lon": "106.4691201",
        "name": "DT 238B, Trí Lễ, Văn Quan, Tỉnh Lạng Sơn, Việt Nam"
    },
    "Tri Tôn": {
        "uri": "Tri%20T%C3%B4n",
        "lat": "10.4205235",
        "lon": "105.0010215",
        "name": "Tri Tôn, Tỉnh An Giang, Việt Nam"
    },
    "Truc Lam": {
        "uri": "Truc%20Lam",
        "lat": "10.8751161",
        "lon": "106.62998564832614",
        "name": "Trúc Lâm, Phường Hiệp Thành, Quận Mười Hai, Việt Nam"
    },
    "Tung Muong": {
        "uri": "Tung%20Muong"
    },
    "Tuy Hòa": {
        "uri": "Tuy%20H%C3%B2a"
    },
    "Tuy Phong": {
        "uri": "Tuy%20Phong",
        "lat": "11.3404663",
        "lon": "108.74464221904033",
        "name": "Tuy Phong, Tỉnh Bình Thuận, Việt Nam"
    },
    "Tuyên Quang": {
        "uri": "Tuy%C3%AAn%20Quang",
        "lat": "21.7879695",
        "lon": "105.217387",
        "name": "Tuyên Quang, Tỉnh Tuyên Quang, Việt Nam"
    },
    "Van An": {
        "uri": "Van%20An",
        "lat": "21.1047547",
        "lon": "106.3566412",
        "name": "Văn An, Chí Linh, Hai Duong city, Việt Nam"
    },
    "Vân Canh": {
        "uri": "V%C3%A2n%20Canh",
        "lat": "13.6749805",
        "lon": "108.95723272497106",
        "name": "Vân Canh, Tỉnh Bình Định, Việt Nam"
    },
    "Væn La": {
        "uri": "V%C3%A6n%20La"
    },
    "Van Lam Trai": {
        "uri": "Van%20Lam%20Trai",
        "lat": "21.7810721",
        "lon": "105.1756714",
        "name": "Trại Khách, QL.37, Gò Oanh, Tuyên Quang, Tỉnh Tuyên Quang, Việt Nam"
    },
    "Vàng Danh": {
        "uri": "V%C3%A0ng%20Danh",
        "lat": "21.0985005",
        "lon": "106.7936968262885",
        "name": "Bệnh viện Than Vàng Danh, Lê Lợi, Uông Bí, Tỉnh Quảng Ninh, Việt Nam"
    },
    "Vi Ban": {
        "uri": "Vi%20Ban"
    },
    "Vinh": {
        "uri": "Vinh",
        "lat": "18.6692445",
        "lon": "105.6881594",
        "name": "Thành phố Vinh, Tỉnh Nghệ An, Việt Nam"
    },
    "Vinh Linh": {
        "uri": "Vinh%20Linh",
        "lat": "17.025894649999998",
        "lon": "106.96144351699968",
        "name": "Vĩnh Linh, Quảng Trị, Việt Nam"
    },
    "Vĩnh Sơn": {
        "uri": "V%C4%A9nh%20S%C6%A1n",
        "lat": "11.2894429",
        "lon": "106.7932103",
        "name": "Vinh Sơn, Phước Vĩnh, Phú Giáo, Tỉnh Bình Dương, Việt Nam"
    },
    "Xa Cam My": {
        "uri": "Xa%20Cam%20My",
        "lat": "10.7689956",
        "lon": "107.3454128",
        "name": "172, tổ 7, ấp 8, xuân tây, cẩm mỹ, đồng nai, 172, Đường tỉnh 765, Xã Xuân Tây, Huyện Cẩm Mỹ, Tỉnh Đồng Nai, 810000, Việt Nam"
    },
    "Xã Gia Kiêm": {
        "uri": "X%C3%A3%20Gia%20Ki%C3%AAm",
        "lat": "10.87091515",
        "lon": "106.80615562080386",
        "name": "Trung tâm kiểm dịch thú y Thủ Đức, Song hành Xa lộ Hà Nội - Nhánh Thủ Đức, Đại học Quốc gia TPHCM, Phường Linh Trung, Thành phố Thủ Đức, Tỉnh Bình Dương, 7200000, Việt Nam"
    },
    "Xã Hiêu Tin": {
        "uri": "X%C3%A3%20Hi%C3%AAu%20Tin"
    },
    "Xã Phù Sung": {
        "uri": "X%C3%A3%20Ph%C3%B9%20Sung",
        "lat": "10.6761017",
        "lon": "107.248198",
        "name": "Tạp hóa sáu sung, Quốc lộ 56, Tân Phú, Tân Xuân, Xã Bàu Chinh, Huyện Châu Đức, Tỉnh Bà Rịa-Vũng Tàu, Việt Nam"
    },
    "Xã Phương Lâm": {
        "uri": "X%C3%A3%20Ph%C6%B0%C6%A1ng%20L%C3%A2m",
        "lat": "20.813132",
        "lon": "105.6447726",
        "name": "Phương Lâm ( Lê Thị Dung ), Đường Hồ Chí Minh, Tân Lập, Xã Trần Phú, Chương Mỹ, Hà Nội, Việt Nam"
    },
    "Xa Truc": {
        "uri": "Xa%20Truc"
    },
    "Xóm Khánh Hòa": {
        "uri": "X%C3%B3m%20Kh%C3%A1nh%20H%C3%B2a",
        "lat": "9.4115051",
        "lon": "105.9932694",
        "name": "Rạch Xóm Chùa, Khánh Hòa, Thị xã Vĩnh Châu, Tỉnh Sóc Trăng, Việt Nam"
    },
    "Xóm Lón": {
        "uri": "X%C3%B3m%20L%C3%B3n"
    },
    "Xóm Råch Tàu": {
        "uri": "X%C3%B3m%20R%C3%A5ch%20T%C3%A0u"
    },
    "Xóm Trùm Tháp": {
        "uri": "X%C3%B3m%20Tr%C3%B9m%20Th%C3%A1p"
    },
    "Xóm Vàm Cái Cùng": {
        "uri": "X%C3%B3m%20V%C3%A0m%20C%C3%A1i%20C%C3%B9ng"
    },
    "Xóm Vàm Láng": {
        "uri": "X%C3%B3m%20V%C3%A0m%20L%C3%A1ng"
    },
    "Xuan Hoa": {
        "uri": "Xuan%20Hoa",
        "lat": "21.8230285",
        "lon": "105.2206806",
        "name": "Xuan Hoa, Tân Quang, Tuyên Quang, Tỉnh Tuyên Quang, Việt Nam"
    },
    "Xuân Lung": {
        "uri": "Xu%C3%A2n%20Lung",
        "lat": "20.83084035",
        "lon": "106.73390117017448",
        "name": "Nghĩa Trang Công Giao Xuân Bồ, Lũng Đông, Quận Hải An, Hải Phòng, Việt Nam"
    },
    "Xuong Kuang": {
        "uri": "Xuong%20Kuang"
    },
    "Yên Bình Xã": {
        "uri": "Y%C3%AAn%20B%C3%ACnh%20X%C3%A3",
        "lat": "21.4076094",
        "lon": "105.8876968",
        "name": "Yên Bình, Đường cao tốc Hà Nội - Thái Nguyên, Thị xã Phổ Yên, Tỉnh Thái Nguyên, 257229, Việt Nam"
    },
    "Khanh Son": {
        "uri": "Khanh%20Son",
        "lat": "12.037060199999999",
        "lon": "108.91044263830209",
        "name": "Khánh Sơn, Khánh Hòa, Việt Nam"
    },
    "Xóm Mÿ Ca": {
        "uri": "X%C3%B3m%20M%C3%BF%20Ca",
        "lat": "21.1407427",
        "lon": "105.3310879",
        "name": "Qua cổng xóm Tân Trại 30m, Đường tỉnh 414C, Ba Vì, Hà Nội, Việt Nam"
    },
    "Lomg Ho": {
        "uri": "Lomg%20Ho"
    },
    "Long Phú": {
        "uri": "Long%20Ph%C3%BA",
        "lat": "10.7736533",
        "lon": "105.2258025",
        "name": "Long Phú, Thị xã Tân Châu, Tỉnh An Giang, Việt Nam"
    },
    "Ngoc Hien": {
        "uri": "Ngoc%20Hien",
        "lat": "10.3587415",
        "lon": "107.0974449",
        "name": "Ngoc Hien, 3 Tháng 2, khóm Rẫy, Nguyễn An Ninh, Vũng Tàu, Tỉnh Bà Rịa-Vũng Tàu, 0641, Việt Nam"
    },
    "Tµa Chùa": {
        "uri": "T%C2%B5a%20Ch%C3%B9a"
    },
    "Hå Lang": {
        "uri": "H%C3%A5%20Lang",
        "lat": "22.7125811",
        "lon": "106.663947376492",
        "name": "Hạ Lang, Tỉnh Cao Bằng, Việt Nam"
    },
    "Mèo Våc": {
        "uri": "M%C3%A8o%20V%C3%A5c",
        "lat": "23.1516557",
        "lon": "105.437853298152",
        "name": "Mèo Vạc, Tỉnh Hà Giang, Việt Nam"
    },
    "Cat Son Phuong": {
        "uri": "Cat%20Son%20Phuong",
        "lat": "16.1427104",
        "lon": "108.2319939",
        "name": "Cat Vang Beach (Bai Cat Vang), Đường Yết Kiêu, Phường Thọ Quang, Sơn Trà, Đà Nẵng, 8511, Việt Nam"
    },
    "An Hải (1)": {
        "uri": "An%20H%E1%BA%A3i%20(1)"
    },
    "Ấp An Ðiền": {
        "uri": "%E1%BA%A4p%20An%20%C3%90i%E1%BB%81n"
    },
    "Ấp Vĩnh An": {
        "uri": "%E1%BA%A4p%20V%C4%A9nh%20An",
        "lat": "10.6488118",
        "lon": "107.2619421",
        "name": "Vĩnh An, Xã Bình Giã, Huyện Châu Đức, Tỉnh Bà Rịa-Vũng Tàu, Việt Nam"
    },
    "Bắc Giang": {
        "uri": "B%E1%BA%AFc%20Giang",
        "lat": "21.3092863",
        "lon": "106.6165128",
        "name": "Tỉnh Bắc Giang, Việt Nam"
    },
    "Bắc Hà": {
        "uri": "B%E1%BA%AFc%20H%C3%A0"
    },
    "Bạch Mai": {
        "uri": "B%E1%BA%A1ch%20Mai",
        "lat": "10.4930377",
        "lon": "107.1697946",
        "name": "bạch mai, Lê Quý Đôn, Phường Phước Trung, Thành phố Bà Rịa, Long Điền, Tỉnh Bà Rịa-Vũng Tàu, 78107, Việt Nam"
    },
    "Bản Vay (1)": {
        "uri": "B%E1%BA%A3n%20Vay%20(1)",
        "lat": "22.5319444",
        "lon": "103.2269444",
        "name": "Bản Làng Vây 1, Xã Huổi Luông, Tỉnh Lai Châu, Việt Nam"
    },
    "Bảo Yên": {
        "uri": "B%E1%BA%A3o%20Y%C3%AAn",
        "lat": "20.70060845",
        "lon": "106.06002460324905",
        "name": "Xã Bảo Khê, Hưng Yên, Tỉnh Hưng Yên, Việt Nam"
    },
    "Bình Phước": {
        "uri": "B%C3%ACnh%20Ph%C6%B0%E1%BB%9Bc",
        "lat": "11.7332484",
        "lon": "106.906249",
        "name": "Tỉnh Bình Phước, Việt Nam"
    },
    "Bồng Sơn": {
        "uri": "B%E1%BB%93ng%20S%C6%A1n"
    },
    "Buôn Ma Thuột": {
        "uri": "Bu%C3%B4n%20Ma%20Thu%E1%BB%99t",
        "lat": "12.6796827",
        "lon": "108.0447368",
        "name": "Buôn Ma Thuột, Đắk Lắk, Việt Nam"
    },
    "Cam Ðường": {
        "uri": "Cam%20%C3%90%C6%B0%E1%BB%9Dng",
        "lat": "22.40528",
        "lon": "104.0240916",
        "name": "Cam Đường, Lào Cai, Tỉnh Lào Cai, 0203, Việt Nam"
    },
    "Cam Mỹ": {
        "uri": "Cam%20M%E1%BB%B9",
        "lat": "10.7689956",
        "lon": "107.3454128",
        "name": "172, tổ 7, ấp 8, xuân tây, cẩm mỹ, đồng nai, 172, Đường tỉnh 765, Xã Xuân Tây, Huyện Cẩm Mỹ, Tỉnh Đồng Nai, 810000, Việt Nam"
    },
    "Cần Duộc": {
        "uri": "C%E1%BA%A7n%20Du%E1%BB%99c",
        "lat": "10.5035344",
        "lon": "106.6042501",
        "name": "Cần Đước, Huyện Cần Đước, Tỉnh Long An, Việt Nam"
    },
    "Châu Ðốc": {
        "uri": "Ch%C3%A2u%20%C3%90%E1%BB%91c",
        "lat": "10.7101815",
        "lon": "105.1188675",
        "name": "Thành phố Châu Đốc, Tỉnh An Giang, 89888, Việt Nam"
    },
    "Chợ Phước Hải": {
        "uri": "Ch%E1%BB%A3%20Ph%C6%B0%E1%BB%9Bc%20H%E1%BA%A3i",
        "lat": "10.4186202",
        "lon": "107.2863845981527",
        "name": "Chợ Phước Hải, Lạc Long Quân, Hải Sơn, Phước Hải, Huyện Đất Đỏ, Tỉnh Bà Rịa-Vũng Tàu, Việt Nam"
    },
    "Củng Sơn": {
        "uri": "C%E1%BB%A7ng%20S%C6%A1n",
        "lat": "13.0396912",
        "lon": "108.971597",
        "name": "Củng Sơn, Sơn Hòa, Tỉnh Phú Yên, Việt Nam"
    },
    "Dầu Tiếng": {
        "uri": "D%E1%BA%A7u%20Ti%E1%BA%BFng"
    },
    "Ðịa Ðiếm Bunard (3)": {
        "uri": "%C3%90%E1%BB%8Ba%20%C3%90i%E1%BA%BFm%20Bunard%20(3)"
    },
    "Ðiện Bàn": {
        "uri": "%C3%90i%E1%BB%87n%20B%C3%A0n",
        "lat": "15.8848033",
        "lon": "108.2517836",
        "name": "Điện Bàn, Thị xã Điện Bàn, Tỉnh Quảng Nam, Việt Nam"
    },
    "Ðịnh Bình (2)": {
        "uri": "%C3%90%E1%BB%8Bnh%20B%C3%ACnh%20(2)"
    },
    "Dinh Ðiền Dak Quon": {
        "uri": "Dinh%20%C3%90i%E1%BB%81n%20Dak%20Quon"
    },
    "Ðồng Chuế": {
        "uri": "%C3%90%E1%BB%93ng%20Chu%E1%BA%BF"
    },
    "Ðồng Sài": {
        "uri": "%C3%90%E1%BB%93ng%20S%C3%A0i"
    },
    "Giàng Mưng Pho": {
        "uri": "Gi%C3%A0ng%20M%C6%B0ng%20Pho",
        "lat": "15.9338641",
        "lon": "108.1826504",
        "name": "Sông Quá Giáng, Bích Bắc, Thị xã Điện Bàn, Tỉnh Quảng Nam, 550000, Việt Nam"
    },
    "Hộ Thông": {
        "uri": "H%E1%BB%99%20Th%C3%B4ng"
    },
    "Hồ Xá": {
        "uri": "H%E1%BB%93%20X%C3%A1",
        "lat": "17.0705848",
        "lon": "107.0069057",
        "name": "Hồ Xá, Vĩnh Linh, Quảng Trị, Việt Nam"
    },
    "Hớn Quản": {
        "uri": "H%E1%BB%9Bn%20Qu%E1%BA%A3n"
    },
    "Hương Thũy": {
        "uri": "H%C6%B0%C6%A1ng%20Th%C5%A9y"
    },
    "Hữu Giang (1)": {
        "uri": "H%E1%BB%AFu%20Giang%20(1)",
        "lat": "10.292499",
        "lon": "105.8974176",
        "name": "Quốc lộ 1, An Hữu, Huyện Cái Bè, Tỉnh Tiền Giang, Việt Nam"
    },
    "Kim Cương": {
        "uri": "Kim%20C%C6%B0%C6%A1ng",
        "lat": "11.9518455",
        "lon": "108.4392777",
        "name": "Kim cuong, 191 (79), Bùi Thị Xuân, Ấp Đa Thiên, Đà Lạt, Tỉnh Lâm Đồng, 610000, Việt Nam"
    },
    "Lộc Ninh": {
        "uri": "L%E1%BB%99c%20Ninh"
    },
    "Mường Tong": {
        "uri": "M%C6%B0%E1%BB%9Dng%20Tong",
        "lat": "22.377016",
        "lon": "102.654789",
        "name": "Tà Tổng, Huyện Mường Tè, Tỉnh Lai Châu, Việt Nam"
    },
    "Như Xuân": {
        "uri": "Nh%C6%B0%20Xu%C3%A2n",
        "lat": "19.5979665",
        "lon": "105.38746887021276",
        "name": "Như Xuân, Tỉnh Thanh Hóa, Việt Nam"
    },
    "Ninh Phước (1)": {
        "uri": "Ninh%20Ph%C6%B0%E1%BB%9Bc%20(1)",
        "lat": "11.5198574",
        "lon": "108.9216149",
        "name": "Quốc lộ 1, Phước Dân, Ninh Phước, Tỉnh Ninh Thuận, Việt Nam"
    },
    "Nông Trường Nam Ðồng": {
        "uri": "N%C3%B4ng%20Tr%C6%B0%E1%BB%9Dng%20Nam%20%C3%90%E1%BB%93ng",
        "lat": "15.6844942",
        "lon": "107.9331057",
        "name": "current end of Truong Son Dong Road. Jan 2019., Đường Trường Sơn Đông, Nông Sơn, Tỉnh Quảng Nam, Việt Nam"
    },
    "Pắc Ta": {
        "uri": "P%E1%BA%AFc%20Ta"
    },
    "Tùng Nghĩa": {
        "uri": "T%C3%B9ng%20Ngh%C4%A9a",
        "lat": "20.9121885",
        "lon": "105.6159928",
        "name": "Nhà phân phối Phong Tùng, Quốc lộ 6, Khu Công Nghiệp Phú Nghĩa, Chương Mỹ, Hà Nội, Việt Nam"
    },
    "Phú Quốc": {
        "uri": "Ph%C3%BA%20Qu%E1%BB%91c",
        "lat": "10.2153093",
        "lon": "103.9880443",
        "name": "Thành phố Phú Quốc, Kiên Giang, Việt Nam"
    },
    "Phước Thịnh (2)": {
        "uri": "Ph%C6%B0%E1%BB%9Bc%20Th%E1%BB%8Bnh%20(2)"
    },
    "Quảng Ninh": {
        "uri": "Qu%E1%BA%A3ng%20Ninh",
        "lat": "21.1718046",
        "lon": "107.2012742",
        "name": "Tỉnh Quảng Ninh, Việt Nam"
    },
    "Rạch Tàu": {
        "uri": "R%E1%BA%A1ch%20T%C3%A0u",
        "lat": "8.5980149",
        "lon": "104.7637482",
        "name": "Rạch Tàu, Đất Mũi, Huyện Ngọc Hiển, Tỉnh Cà Mau, Việt Nam"
    },
    "Sóc Trăng": {
        "uri": "S%C3%B3c%20Tr%C4%83ng"
    },
    "Sơn Tây": {
        "uri": "S%C6%A1n%20T%C3%A2y"
    },
    "Suối Rút": {
        "uri": "Su%E1%BB%91i%20R%C3%BAt"
    },
    "Thăng Bình": {
        "uri": "Th%C4%83ng%20B%C3%ACnh",
        "lat": "15.7077252",
        "lon": "108.39703627614333",
        "name": "Thăng Bình, Tỉnh Quảng Nam, Việt Nam"
    },
    "Thổ Khối": {
        "uri": "Th%E1%BB%95%20Kh%E1%BB%91i",
        "lat": "10.36161865",
        "lon": "106.36206682567742",
        "name": "Vòng Xuyến Nam Kỳ Khởi Nghĩa, Phường 7, Thành phố Mỹ Tho, Tỉnh Tiền Giang, Việt Nam"
    },
    "Thôn Bảo An": {
        "uri": "Th%C3%B4n%20B%E1%BA%A3o%20An",
        "lat": "10.6143537",
        "lon": "107.1450274",
        "name": "sáu an, Châu Pha - Bàu Phượng - Hắc Dịch, Tân Hà, Xã Châu Pha, Thị xã Phú Mỹ, Tỉnh Bà Rịa-Vũng Tàu, Việt Nam"
    },
    "Tiểu Cần": {
        "uri": "Ti%E1%BB%83u%20C%E1%BA%A7n",
        "lat": "9.8176711",
        "lon": "106.1923012",
        "name": "Tiểu Cần, Huyện Tiểu Cần, Trà Vinh, Việt Nam"
    },
    "Tú Lệ": {
        "uri": "T%C3%BA%20L%E1%BB%87"
    },
    "Vạn Thiện (3)": {
        "uri": "V%E1%BA%A1n%20Thi%E1%BB%87n%20(3)",
        "lat": "12.2336256",
        "lon": "109.1946431",
        "name": "Сапфир 3, Nguyễn Thiện Thuật, Tân Lập, Nha Trang, Khánh Hòa, 65000, Việt Nam"
    },
    "Vĩnh Phúc": {
        "uri": "V%C4%A9nh%20Ph%C3%BAc"
    },
    "Vĩnh Phúc (7)": {
        "uri": "V%C4%A9nh%20Ph%C3%BAc%20(7)",
        "lat": "21.0449811",
        "lon": "105.8107292",
        "name": "Vĩnh Phúc, Phường Vĩnh Phúc, Quận Ba Đình, Hà Nội, 1000, Việt Nam"
    },
    "Xã Sông Lũy": {
        "uri": "X%C3%A3%20S%C3%B4ng%20L%C5%A9y"
    },
    "Xóm Ba Trại": {
        "uri": "X%C3%B3m%20Ba%20Tr%E1%BA%A1i",
        "lat": "10.3378117",
        "lon": "107.0782252980654",
        "name": "Doanh trại QĐND Việt Nam, Xóm Lưới, Phường 2, Vũng Tàu, Tỉnh Bà Rịa-Vũng Tàu, Việt Nam"
    },
    "Bản Ðuông": {
        "uri": "B%E1%BA%A3n%20%C3%90u%C3%B4ng",
        "lat": "15.9204221",
        "lon": "108.2972568",
        "name": "Điện Dương, Thị xã Điện Bàn, Tỉnh Quảng Nam, 563868, Việt Nam"
    },
    "An Phước": {
        "uri": "An%20Ph%C6%B0%E1%BB%9Bc"
    },
    "Ấp An Thuận": {
        "uri": "%E1%BA%A4p%20An%20Thu%E1%BA%ADn",
        "lat": "10.080570999999999",
        "lon": "105.82552459859559",
        "name": "Ấp Thuận Thới, Xã Thuận An, Cái Vồn, Tỉnh Vĩnh Long, Việt Nam"
    },
    "Ấp Bắc": {
        "uri": "%E1%BA%A4p%20B%E1%BA%AFc",
        "lat": "10.616667",
        "lon": "106.05",
        "name": "Ấp Bắc, Tân Thạnh, Tỉnh Long An, Việt Nam"
    },
    "Ấp Bàu Bàng": {
        "uri": "%E1%BA%A4p%20B%C3%A0u%20B%C3%A0ng",
        "lat": "10.7385516",
        "lon": "107.259603",
        "name": "Bàu Sen, Xã Xà Bang, Huyện Châu Đức, Tỉnh Bà Rịa-Vũng Tàu, Việt Nam"
    },
    "Ấp Bình Châu": {
        "uri": "%E1%BA%A4p%20B%C3%ACnh%20Ch%C3%A2u",
        "lat": "10.5307018",
        "lon": "106.4296459",
        "name": "Sửa Xe Châu, Nguyễn Thông, Phường 3, Xã Bình Tâm, Tân An, Tỉnh Long An, 870000, Việt Nam"
    },
    "Ấp Cả Hoản": {
        "uri": "%E1%BA%A4p%20C%E1%BA%A3%20Ho%E1%BA%A3n",
        "lat": "10.8519469",
        "lon": "106.6664309",
        "name": "Trường tiểu học Lê Hoàn - CS2, Hẻm 748 Thống Nhất, Khu dân cư Sài Gòn Co-op, Phường 15, Gò Vấp, 854, Việt Nam"
    },
    "Ấp Ðầu Giồng": {
        "uri": "%E1%BA%A4p%20%C3%90%E1%BA%A7u%20Gi%E1%BB%93ng",
        "lat": "9.5049514",
        "lon": "106.1949754",
        "name": "Đầu Giồng, Trần Đề, Tỉnh Sóc Trăng, Việt Nam"
    },
    "Ấp Hương Phước": {
        "uri": "%E1%BA%A4p%20H%C6%B0%C6%A1ng%20Ph%C6%B0%E1%BB%9Bc",
        "lat": "10.4034195",
        "lon": "107.1827567",
        "name": "Phước Hương, Phước Tỉnh, Xã Phước Tỉnh, Huyện Long Điền, Long Điền, Tỉnh Bà Rịa-Vũng Tàu, Việt Nam"
    },
    "Ấp Lục": {
        "uri": "%E1%BA%A4p%20L%E1%BB%A5c",
        "lat": "11.9642587",
        "lon": "108.452729",
        "name": "Nguyễn Tử Lực, Ấp Đa Thiên, Đà Lạt, Tỉnh Lâm Đồng, 671461, Việt Nam"
    },
    "Ấp Nhà Máy": {
        "uri": "%E1%BA%A4p%20Nh%C3%A0%20M%C3%A1y",
        "lat": "20.9051216",
        "lon": "105.5889552",
        "name": "Nhà máy ấp trứng, Quốc lộ 6, Xuân Hà, Chương Mỹ, Hà Nội, Việt Nam"
    },
    "Ấp Tham Thiện": {
        "uri": "%E1%BA%A4p%20Tham%20Thi%E1%BB%87n"
    },
    "Ấp Thiẹn Ái": {
        "uri": "%E1%BA%A4p%20Thi%E1%BA%B9n%20%C3%81i",
        "lat": "10.7127879",
        "lon": "107.5096617",
        "name": "mỹ ái, Đường tỉnh 329, Phú Vinh, Hoà Hiệp, Xuyên Mộc, Tỉnh Bà Rịa-Vũng Tàu, Việt Nam"
    },
    "Ấp Trạm": {
        "uri": "%E1%BA%A4p%20Tr%E1%BA%A1m",
        "lat": "10.46892435",
        "lon": "107.37111099744828",
        "name": "Poplar Forest of Vietsovpetro Resort Ho Tram, Bến Cát, Xã Phước Thuận, Xuyên Mộc, Tỉnh Bà Rịa-Vũng Tàu, Việt Nam"
    },
    "Bắc Kạn": {
        "uri": "B%E1%BA%AFc%20K%E1%BA%A1n",
        "lat": "22.2571701",
        "lon": "105.8588958",
        "name": "Tỉnh Bắc Kạn, Việt Nam"
    },
    "Bắc Mé": {
        "uri": "B%E1%BA%AFc%20M%C3%A9",
        "lat": "22.763282750000002",
        "lon": "105.28234608698708",
        "name": "Bắc Mê, Tỉnh Hà Giang, Việt Nam"
    },
    "Bắc Ninh": {
        "uri": "B%E1%BA%AFc%20Ninh",
        "lat": "21.1212051",
        "lon": "106.0880245",
        "name": "Tỉnh Bắc Ninh, Việt Nam"
    },
    "Bắc Quang": {
        "uri": "B%E1%BA%AFc%20Quang",
        "lat": "22.3933691",
        "lon": "104.92831463191126",
        "name": "Bắc Quang, Tỉnh Hà Giang, Việt Nam"
    },
    "Bản Cao": {
        "uri": "B%E1%BA%A3n%20Cao",
        "lat": "19.502967",
        "lon": "104.872296",
        "name": "Bản Cào, Quế Phong, Tỉnh Nghệ An, Việt Nam"
    },
    "Bản Chieng": {
        "uri": "B%E1%BA%A3n%20Chieng",
        "lat": "20.6054996",
        "lon": "104.8606376",
        "name": "Bản Chiềng, Quan Hóa, Tỉnh Thanh Hóa, Việt Nam"
    },
    "Bản Ðôn": {
        "uri": "B%E1%BA%A3n%20%C3%90%C3%B4n",
        "lat": "22.194407",
        "lon": "105.487199",
        "name": "Bản Đôn, Chợ Đồn, Tỉnh Bắc Kạn, Việt Nam"
    },
    "Bản Giam": {
        "uri": "B%E1%BA%A3n%20Giam",
        "lat": "12.6733479",
        "lon": "108.07307850448605",
        "name": "Hồ Ông Giám, Buôn Ma Thuột, Đắk Lắk, Việt Nam"
    },
    "Bản Kao": {
        "uri": "B%E1%BA%A3n%20Kao",
        "lat": "12.5979631",
        "lon": "108.037591",
        "name": "Xã Ea Kao, Buôn Ma Thuột, Đắk Lắk, Việt Nam"
    },
    "Bản Ko La": {
        "uri": "B%E1%BA%A3n%20Ko%20La"
    },
    "Bản Kung": {
        "uri": "B%E1%BA%A3n%20Kung"
    },
    "Bản Lót": {
        "uri": "B%E1%BA%A3n%20L%C3%B3t"
    },
    "Bản Na Ca": {
        "uri": "B%E1%BA%A3n%20Na%20Ca",
        "lat": "19.5451244",
        "lon": "105.0964915952893",
        "name": "bản Na Ca, Quỳ Châu, Tỉnh Nghệ An, Việt Nam"
    },
    "Bản Na Tong": {
        "uri": "B%E1%BA%A3n%20Na%20Tong"
    },
    "Bản Nam Che": {
        "uri": "B%E1%BA%A3n%20Nam%20Che"
    },
    "Bản Nặm Mương": {
        "uri": "B%E1%BA%A3n%20N%E1%BA%B7m%20M%C6%B0%C6%A1ng",
        "lat": "22.3929236",
        "lon": "102.9278424",
        "name": "Đường Mường Tè - Pa Tần, Pa Mu, Xã Bum Nưa, Nậm Nhùn, Tỉnh Lai Châu, 391982, Việt Nam"
    },
    "Bản Nam Nen": {
        "uri": "B%E1%BA%A3n%20Nam%20Nen"
    },
    "Bản Pa Thẳng": {
        "uri": "B%E1%BA%A3n%20Pa%20Th%E1%BA%B3ng"
    },
    "Bản Pho": {
        "uri": "B%E1%BA%A3n%20Pho",
        "lat": "22.6258383",
        "lon": "103.3703116",
        "name": "Bản Pho, Xã Dào San, Tỉnh Lai Châu, Việt Nam"
    },
    "Bản Po Bai": {
        "uri": "B%E1%BA%A3n%20Po%20Bai"
    },
    "Bàn Thạch": {
        "uri": "B%C3%A0n%20Th%E1%BA%A1ch"
    },
    "Bản Vai": {
        "uri": "B%E1%BA%A3n%20Vai"
    },
    "Bẩn Yên Nhân": {
        "uri": "B%E1%BA%A9n%20Y%C3%AAn%20Nh%C3%A2n"
    },
    "Bảo Lộc": {
        "uri": "B%E1%BA%A3o%20L%E1%BB%99c",
        "lat": "11.5506941",
        "lon": "107.8092511",
        "name": "Bảo Lộc, Tỉnh Lâm Đồng, 760000, Việt Nam"
    },
    "Bến Cỏ": {
        "uri": "B%E1%BA%BFn%20C%E1%BB%8F"
    },
    "Bến Giang": {
        "uri": "B%E1%BA%BFn%20Giang",
        "lat": "15.6900043",
        "lon": "107.765686",
        "name": "Bến Giằng, Cà Dy, Nam Giang, Tỉnh Quảng Nam, Việt Nam"
    },
    "Bến Tranh": {
        "uri": "B%E1%BA%BFn%20Tranh",
        "lat": "10.7678079",
        "lon": "106.6901575",
        "name": "Ben Tranh, Đỗ Quang Đẩu, Phường Phạm Ngũ Lão, Thành phố Hồ Chí Minh, Quận Nhứt, 70200, Việt Nam"
    },
    "Biển Ðộng": {
        "uri": "Bi%E1%BB%83n%20%C3%90%E1%BB%99ng"
    },
    "Bồ Túc": {
        "uri": "B%E1%BB%93%20T%C3%BAc"
    },
    "Buôn Mă": {
        "uri": "Bu%C3%B4n%20M%C4%83",
        "lat": "12.6796827",
        "lon": "108.0447368",
        "name": "Buôn Ma Thuột, Đắk Lắk, Việt Nam"
    },
    "Cai Lậy": {
        "uri": "Cai%20L%E1%BA%ADy",
        "lat": "10.4082058",
        "lon": "106.1219857",
        "name": "Thị xã Cai Lậy, Tỉnh Tiền Giang, Việt Nam"
    },
    "Cái Nước": {
        "uri": "C%C3%A1i%20N%C6%B0%E1%BB%9Bc",
        "lat": "9.0071307",
        "lon": "105.04460446592711",
        "name": "Cái Nước, Tỉnh Cà Mau, Việt Nam"
    },
    "Cam Lộ": {
        "uri": "Cam%20L%E1%BB%99"
    },
    "Cần Ðước": {
        "uri": "C%E1%BA%A7n%20%C3%90%C6%B0%E1%BB%9Bc"
    },
    "Cần Thơ": {
        "uri": "C%E1%BA%A7n%20Th%C6%A1",
        "lat": "10.0451859",
        "lon": "105.7448944",
        "name": "Thành phố Cần Thơ, Việt Nam"
    },
    "Cao Bằng": {
        "uri": "Cao%20B%E1%BA%B1ng"
    },
    "Chấp Lễ": {
        "uri": "Ch%E1%BA%A5p%20L%E1%BB%85"
    },
    "Chi Ngại": {
        "uri": "Chi%20Ng%E1%BA%A1i"
    },
    "Chợ Kem": {
        "uri": "Ch%E1%BB%A3%20Kem"
    },
    "Cốc Thành": {
        "uri": "C%E1%BB%91c%20Th%C3%A0nh"
    },
    "Cựu Ðôi": {
        "uri": "C%E1%BB%B1u%20%C3%90%C3%B4i",
        "lat": "21.001191499999997",
        "lon": "105.93341758437809",
        "name": "Trung tâm nghiên cứu Ong và nuôi Ong nhiệt đới, Gia Lâm, Hà Nội, Việt Nam"
    },
    "Ða Cỗc": {
        "uri": "%C3%90a%20C%E1%BB%97c"
    },
    "Ðà Lạt": {
        "uri": "%C3%90%C3%A0%20L%E1%BA%A1t",
        "lat": "11.9402416",
        "lon": "108.4375758",
        "name": "Đà Lạt, Tỉnh Lâm Đồng, Việt Nam"
    },
    "Ðầm Hà": {
        "uri": "%C3%90%E1%BA%A7m%20H%C3%A0"
    },
    "Ðất Ðỏ": {
        "uri": "%C3%90%E1%BA%A5t%20%C3%90%E1%BB%8F"
    },
    "Dĩ An": {
        "uri": "D%C4%A9%20An",
        "lat": "10.9128946",
        "lon": "106.7665345",
        "name": "Dĩ An, Tỉnh Bình Dương, 824791, Việt Nam"
    },
    "Ðiền Xá": {
        "uri": "%C3%90i%E1%BB%81n%20X%C3%A1",
        "lat": "21.2202961",
        "lon": "105.7830352",
        "name": "Điền Xá, Hà Nội, Việt Nam"
    },
    "Ðông Ðăng": {
        "uri": "%C3%90%C3%B4ng%20%C3%90%C4%83ng",
        "lat": "21.9432926",
        "lon": "106.6973696",
        "name": "Đồng Đăng, Đường Bắc Sơn, Khu Ga, Đồng Đăng, Cao Lộc, Tỉnh Lạng Sơn, Việt Nam"
    },
    "Ðồng Lý": {
        "uri": "%C3%90%E1%BB%93ng%20L%C3%BD"
    },
    "Ðông Tảo Dông": {
        "uri": "%C3%90%C3%B4ng%20T%E1%BA%A3o%20D%C3%B4ng"
    },
    "Dong Tong Băng": {
        "uri": "Dong%20Tong%20B%C4%83ng"
    },
    "Ðông Triều": {
        "uri": "%C3%90%C3%B4ng%20Tri%E1%BB%81u",
        "lat": "21.0837903",
        "lon": "106.5133609",
        "name": "Đông Triều, Tỉnh Quảng Ninh, Việt Nam"
    },
    "Ðồng Xuân": {
        "uri": "%C3%90%E1%BB%93ng%20Xu%C3%A2n",
        "lat": "13.413470499999999",
        "lon": "108.97270645131974",
        "name": "Đồng Xuân, Tỉnh Phú Yên, Việt Nam"
    },
    "Ðức Thắng": {
        "uri": "%C3%90%E1%BB%A9c%20Th%E1%BA%AFng",
        "lat": "21.3566133",
        "lon": "105.9759728",
        "name": "Đức Thắng, Hiệp Hòa, Tỉnh Bắc Giang, Việt Nam"
    },
    "Ðường Keo": {
        "uri": "%C3%90%C6%B0%E1%BB%9Dng%20Keo"
    },
    "Giá Rai": {
        "uri": "Gi%C3%A1%20Rai",
        "lat": "9.2404957",
        "lon": "105.4509527",
        "name": "Phường 1, Thị xã Giá Rai, Tỉnh Bạc Liêu, Việt Nam"
    },
    "Giều Cả": {
        "uri": "Gi%E1%BB%81u%20C%E1%BA%A3"
    },
    "Giồng Mé": {
        "uri": "Gi%E1%BB%93ng%20M%C3%A9",
        "lat": "22.6340667",
        "lon": "102.4414602",
        "name": "Mé Gióng, Xã Ka Lăng, Huyện Mường Tè, Tỉnh Lai Châu, Việt Nam"
    },
    "Gò Dầu Hạ": {
        "uri": "G%C3%B2%20D%E1%BA%A7u%20H%E1%BA%A1",
        "lat": "11.0839073",
        "lon": "106.2650701",
        "name": "Gò Dầu Hạ, Huyện Gò Dầu, Tỉnh Tây Ninh, Việt Nam"
    },
    "Hà Ðồng": {
        "uri": "H%C3%A0%20%C3%90%E1%BB%93ng",
        "lat": "20.9670801",
        "lon": "105.772587",
        "name": "Hà Đông, Quận Hà Đông, Hà Nội, 193824, Việt Nam"
    },
    "Hà Tĩnh": {
        "uri": "H%C3%A0%20T%C4%A9nh",
        "lat": "18.2879059",
        "lon": "105.7842774",
        "name": "Hà Tĩnh, Việt Nam"
    },
    "Hải Long": {
        "uri": "H%E1%BA%A3i%20Long",
        "lat": "20.9521838",
        "lon": "107.0994883",
        "name": "Hải Long, Mon Bay, Hồng Hải, Thành phố Hạ Long, Tỉnh Quảng Ninh, 36000, Việt Nam"
    },
    "Hội An": {
        "uri": "H%E1%BB%99i%20An",
        "lat": "15.8798137",
        "lon": "108.3273939",
        "name": "Thành phố Hội An, Tỉnh Quảng Nam, Việt Nam"
    },
    "Hưng Yên": {
        "uri": "H%C6%B0ng%20Y%C3%AAn",
        "lat": "20.8193369",
        "lon": "106.0314504",
        "name": "Tỉnh Hưng Yên, Việt Nam"
    },
    "Hữu Ðô": {
        "uri": "H%E1%BB%AFu%20%C3%90%C3%B4",
        "lat": "20.7133429",
        "lon": "106.7849",
        "name": "Nguyễn Hữu Cầu, Đồ Sơn, Hải Phòng, Phường Vạn Sơn, Việt Nam"
    },
    "Kiện Trung": {
        "uri": "Ki%E1%BB%87n%20Trung",
        "lat": "10.83851675",
        "lon": "105.28886524482738",
        "name": "Ấp Trung, Xã Thường Phước 2, Huyện Hồng Ngự, Đồng Tháp, Việt Nam"
    },
    "Kon Hơnong": {
        "uri": "Kon%20H%C6%A1nong"
    },
    "Kỳ Anh": {
        "uri": "K%E1%BB%B3%20Anh",
        "lat": "18.0665114",
        "lon": "106.3001346",
        "name": "Thị xã Kỳ Anh, Hà Tĩnh, Việt Nam"
    },
    "Làng Mộ": {
        "uri": "L%C3%A0ng%20M%E1%BB%99",
        "lat": "21.338572",
        "lon": "106.2535776",
        "name": "Phi Mô, Lạng Giang, Tỉnh Bắc Giang, Việt Nam"
    },
    "Làng Sẻ": {
        "uri": "L%C3%A0ng%20S%E1%BA%BB"
    },
    "Lộc Bình": {
        "uri": "L%E1%BB%99c%20B%C3%ACnh",
        "lat": "21.66952595",
        "lon": "106.91183779286854",
        "name": "Lộc Bình, Tỉnh Lạng Sơn, Việt Nam"
    },
    "Long Lễ": {
        "uri": "Long%20L%E1%BB%85",
        "lat": "17.1045331",
        "lon": "106.5402312",
        "name": "Sông Long Đại, Lệ Thủy, Tỉnh Quảng Bình, Việt Nam"
    },
    "Long Mỹ": {
        "uri": "Long%20M%E1%BB%B9",
        "lat": "13.3992621",
        "lon": "109.1048967",
        "name": "Long Mỹ, Đồng Xuân, Tỉnh Phú Yên, Việt Nam"
    },
    "Lục Linh": {
        "uri": "L%E1%BB%A5c%20Linh",
        "lat": "21.1152293",
        "lon": "106.2999958",
        "name": "Lục Đầu Giang, Bãi Bông, Phả Lại, Chí Linh, Hai Duong city, Việt Nam"
    },
    "Lương Khê": {
        "uri": "L%C6%B0%C6%A1ng%20Kh%C3%AA"
    },
    "Mặc Bắc": {
        "uri": "M%E1%BA%B7c%20B%E1%BA%AFc",
        "lat": "21.0853963",
        "lon": "105.7506647",
        "name": "Phường Liên Mạc, Quận Bắc Từ Liêm, Hà Nội, Việt Nam"
    },
    "Mông Dương": {
        "uri": "M%C3%B4ng%20D%C6%B0%C6%A1ng",
        "lat": "21.056164",
        "lon": "107.3232422",
        "name": "Mông Dương, Cẩm Phả, Tỉnh Quảng Ninh, Việt Nam"
    },
    "Mường Bô": {
        "uri": "M%C6%B0%E1%BB%9Dng%20B%C3%B4",
        "lat": "22.4802009",
        "lon": "103.9723851",
        "name": "Phố Mường Than, Kim Tân, Lào Cai, Tỉnh Lào Cai, 31153, Việt Nam"
    },
    "Mường Boum": {
        "uri": "M%C6%B0%E1%BB%9Dng%20Boum"
    },
    "Mường Tè": {
        "uri": "M%C6%B0%E1%BB%9Dng%20T%C3%A8",
        "lat": "22.4852389",
        "lon": "102.6164031",
        "name": "Xã Mường Tè, Huyện Mường Tè, Tỉnh Lai Châu, Việt Nam"
    },
    "Mương Tong": {
        "uri": "M%C6%B0%C6%A1ng%20Tong",
        "lat": "10.3790922",
        "lon": "105.7070414",
        "name": "Mương Điều, Huyện Lấp Vò, Đồng Tháp, Việt Nam"
    },
    "Mỹ Tho": {
        "uri": "M%E1%BB%B9%20Tho",
        "lat": "10.3606197",
        "lon": "106.3658439",
        "name": "Thành phố Mỹ Tho, Tỉnh Tiền Giang, Việt Nam"
    },
    "Nà Giảo": {
        "uri": "N%C3%A0%20Gi%E1%BA%A3o"
    },
    "Na Sầm": {
        "uri": "Na%20S%E1%BA%A7m",
        "lat": "22.0567572",
        "lon": "106.6156378",
        "name": "Na Sầm, Văn Lãng, Tỉnh Lạng Sơn, Việt Nam"
    },
    "Nam Ðiến": {
        "uri": "Nam%20%C3%90i%E1%BA%BFn",
        "lat": "19.974038",
        "lon": "106.1360349",
        "name": "Nam Điền, Huyện Nghĩa Hưng, Tỉnh Nam Định, Việt Nam"
    },
    "Nam Ðịnh": {
        "uri": "Nam%20%C3%90%E1%BB%8Bnh",
        "lat": "20.2712241",
        "lon": "106.1629895",
        "name": "Tỉnh Nam Định, Việt Nam"
    },
    "Nghĩa Ðàn": {
        "uri": "Ngh%C4%A9a%20%C3%90%C3%A0n",
        "lat": "19.354525449999997",
        "lon": "105.50936555658564",
        "name": "Nghĩa Đàn, Tỉnh Nghệ An, Việt Nam"
    },
    "Nghĩa Lộ": {
        "uri": "Ngh%C4%A9a%20L%E1%BB%99",
        "lat": "21.6064201",
        "lon": "104.5036951",
        "name": "Nghĩa Lộ, Tỉnh Yên Bái, 02163, Việt Nam"
    },
    "Ngọc Trì": {
        "uri": "Ng%E1%BB%8Dc%20Tr%C3%AC",
        "lat": "20.9824276",
        "lon": "106.3796925",
        "name": "Ngọc Trì, Thành phố Hải Dương, Hai Duong city, Việt Nam"
    },
    "Nội Xá": {
        "uri": "N%E1%BB%99i%20X%C3%A1",
        "lat": "20.6934379",
        "lon": "105.770241",
        "name": "Nội Xá, Ứng Hòa, Hà Nội, Việt Nam"
    },
    "Nông Trại": {
        "uri": "N%C3%B4ng%20Tr%E1%BA%A1i",
        "lat": "19.4580978",
        "lon": "105.7633887",
        "name": "Ga Văn Trai, Quốc lộ 1A, Đự Quần, Thị xã Nghi Sơn, Huyện Nông Cống, Tỉnh Thanh Hóa, Việt Nam"
    },
    "Phan Thiết": {
        "uri": "Phan%20Thi%E1%BA%BFt",
        "lat": "10.931025",
        "lon": "108.1014632",
        "name": "Phan Thiết, Tỉnh Bình Thuận, Việt Nam"
    },
    "Phát Diệm": {
        "uri": "Ph%C3%A1t%20Di%E1%BB%87m",
        "lat": "20.0901736",
        "lon": "106.0834949",
        "name": "Phát Diệm, Kim Sơn, Tỉnh Ninh Bình, Việt Nam"
    },
    "Phố Lu": {
        "uri": "Ph%E1%BB%91%20Lu",
        "lat": "22.3207036",
        "lon": "104.1865508",
        "name": "Phố Lu, Bảo Thắng, Tỉnh Lào Cai, Việt Nam"
    },
    "Phong Thổ": {
        "uri": "Phong%20Th%E1%BB%95",
        "lat": "22.5454439",
        "lon": "103.2896149",
        "name": "Phong Thổ, Tỉnh Lai Châu, Việt Nam"
    },
    "Thủ Dầu Một": {
        "uri": "Th%E1%BB%A7%20D%E1%BA%A7u%20M%E1%BB%99t",
        "lat": "10.9808435",
        "lon": "106.6537483",
        "name": "Thành phố Thủ Dầu Một, Tỉnh Bình Dương, Việt Nam"
    },
    "Phú Lộc": {
        "uri": "Ph%C3%BA%20L%E1%BB%99c",
        "lat": "16.2891469",
        "lon": "107.86467718145337",
        "name": "Phú Lộc, Thừa Thiên Huế, 52000, Việt Nam"
    },
    "Phủ Lý": {
        "uri": "Ph%E1%BB%A7%20L%C3%BD",
        "lat": "20.5447207",
        "lon": "105.915517",
        "name": "Thành phố Phủ Lý, Tỉnh Hà Nam, Việt Nam"
    },
    "Phú Thọ": {
        "uri": "Ph%C3%BA%20Th%E1%BB%8D",
        "lat": "21.4000047",
        "lon": "105.2238899",
        "name": "Phú Thọ, Tỉnh Phú Thọ, Việt Nam"
    },
    "Phú Vật": {
        "uri": "Ph%C3%BA%20V%E1%BA%ADt",
        "lat": "10.5682787",
        "lon": "105.2437091",
        "name": "cầu phù vật, Quốc lộ 91, Cái Dầu, Châu Phú, Tỉnh An Giang, Việt Nam"
    },
    "Pơlei Breng": {
        "uri": "P%C6%A1lei%20Breng"
    },
    "Quảng Ngãi": {
        "uri": "Qu%E1%BA%A3ng%20Ng%C3%A3i",
        "lat": "14.9635349",
        "lon": "108.6642632",
        "name": "Tỉnh Quảng Ngãi, Việt Nam"
    },
    "Quảng Trach": {
        "uri": "Qu%E1%BA%A3ng%20Trach",
        "lat": "17.87216885",
        "lon": "106.36244821515544",
        "name": "Quảng Trạch, Tỉnh Quảng Bình, Việt Nam"
    },
    "Quảng Trị": {
        "uri": "Qu%E1%BA%A3ng%20Tr%E1%BB%8B",
        "lat": "16.8581352",
        "lon": "106.8588935",
        "name": "Quảng Trị, Việt Nam"
    },
    "Quảng Yên": {
        "uri": "Qu%E1%BA%A3ng%20Y%C3%AAn",
        "lat": "20.92566415",
        "lon": "106.8572100594475",
        "name": "Quảng Yên, Tỉnh Quảng Ninh, Việt Nam"
    },
    "Quỳnh Nhai": {
        "uri": "Qu%E1%BB%B3nh%20Nhai",
        "lat": "21.776997899999998",
        "lon": "103.65989364112426",
        "name": "Quỳnh Nhai, Tỉnh Sơn La, Việt Nam"
    },
    "Rạch Giá": {
        "uri": "R%E1%BA%A1ch%20Gi%C3%A1",
        "lat": "10.0107104",
        "lon": "105.0832623",
        "name": "Rạch Giá, Kiên Giang, 0297, Việt Nam"
    },
    "Rạch Gòi": {
        "uri": "R%E1%BA%A1ch%20G%C3%B2i",
        "lat": "9.8971508",
        "lon": "105.6653468",
        "name": "Rạch Gòi, Châu Thành A, Hậu Giang, Việt Nam"
    },
    "Sầm Sơn": {
        "uri": "S%E1%BA%A7m%20S%C6%A1n",
        "lat": "19.7373081",
        "lon": "105.8933004",
        "name": "Sầm Sơn, Tỉnh Thanh Hóa, Việt Nam"
    },
    "Tam Kỳ": {
        "uri": "Tam%20K%E1%BB%B3",
        "lat": "10.78707665",
        "lon": "106.66399112813909",
        "name": "Tam Ky, Chấn Hưng, Phường 6, Quận Tân Bình, Thành phố Hồ Chí Minh, 72117, Việt Nam"
    },
    "Tam Lễ": {
        "uri": "Tam%20L%E1%BB%85"
    },
    "Tân Cảnh": {
        "uri": "T%C3%A2n%20C%E1%BA%A3nh",
        "lat": "14.6533438",
        "lon": "107.8037519",
        "name": "Tân Cảnh, Huyện Đắk Tô, Tỉnh Kon Tum, Việt Nam"
    },
    "Thăng Ðức": {
        "uri": "Th%C4%83ng%20%C3%90%E1%BB%A9c",
        "lat": "10.4145101",
        "lon": "107.1965216",
        "name": "Đức, Hương lộ 5, Tân Lập, Phước Tỉnh, Xã Phước Tỉnh, Huyện Long Điền, Long Điền, Tỉnh Bà Rịa-Vũng Tàu, Việt Nam"
    },
    "Thánh Lạng Xã": {
        "uri": "Th%C3%A1nh%20L%E1%BA%A1ng%20X%C3%A3",
        "lat": "21.8714888",
        "lon": "106.7466599",
        "name": "Xã Hoàng Đồng, Thành phố Lạng Sơn, Tỉnh Lạng Sơn, Việt Nam"
    },
    "Thạnh Phong": {
        "uri": "Th%E1%BA%A1nh%20Phong",
        "lat": "10.124695",
        "lon": "106.074886",
        "name": "Thanh Phong, Huyện Mang Thít, Tỉnh Vĩnh Long, Việt Nam"
    },
    "Thạnh Phú": {
        "uri": "Th%E1%BA%A1nh%20Ph%C3%BA",
        "lat": "9.9320393",
        "lon": "106.5600860265611",
        "name": "Huyện Thạnh Phú, Tỉnh Bến Tre, Việt Nam"
    },
    "Thanh Thủy": {
        "uri": "Thanh%20Th%E1%BB%A7y",
        "lat": "21.123781",
        "lon": "105.28785795717657",
        "name": "Thanh Thủy, Tỉnh Phú Thọ, Việt Nam"
    },
    "Thất Khê": {
        "uri": "Th%E1%BA%A5t%20Kh%C3%AA",
        "lat": "22.2561782",
        "lon": "106.4760005",
        "name": "Thất Khê, Tràng Định, Tỉnh Lạng Sơn, Việt Nam"
    },
    "Thiết Trà": {
        "uri": "Thi%E1%BA%BFt%20Tr%C3%A0",
        "lat": "10.9401092",
        "lon": "108.1042943",
        "name": "Trà Sữa Cozy, Võ Văn Kiệt, Phan Thiết, Tỉnh Bình Thuận, 0252, Việt Nam"
    },
    "Thới Bình": {
        "uri": "Th%E1%BB%9Bi%20B%C3%ACnh",
        "lat": "9.3802805",
        "lon": "105.17174346298336",
        "name": "Thới Bình, Tỉnh Cà Mau, Việt Nam"
    },
    "Thôn Mỹ Chánh": {
        "uri": "Th%C3%B4n%20M%E1%BB%B9%20Ch%C3%A1nh"
    },
    "Thôn Mỹ Thủy": {
        "uri": "Th%C3%B4n%20M%E1%BB%B9%20Th%E1%BB%A7y"
    },
    "Thôn Sơn Hải": {
        "uri": "Th%C3%B4n%20S%C6%A1n%20H%E1%BA%A3i"
    },
    "Thốt Nốt": {
        "uri": "Th%E1%BB%91t%20N%E1%BB%91t",
        "lat": "9.60331",
        "lon": "106.356196",
        "name": "Thốt Nốt, Huyện Duyên Hải, Trà Vinh, Việt Nam"
    },
    "Thủ Thừa": {
        "uri": "Th%E1%BB%A7%20Th%E1%BB%ABa",
        "lat": "10.6011534",
        "lon": "106.4018563",
        "name": "Thủ Thừa, Huyện Thủ Thừa, Tỉnh Long An, Việt Nam"
    },
    "Trà Bồng": {
        "uri": "Tr%C3%A0%20B%E1%BB%93ng"
    },
    "Trại Hút": {
        "uri": "Tr%E1%BA%A1i%20H%C3%BAt"
    },
    "Trảng Bàng": {
        "uri": "Tr%E1%BA%A3ng%20B%C3%A0ng",
        "lat": "11.1057928",
        "lon": "106.38900692980548",
        "name": "Trảng Bàng, Tỉnh Tây Ninh, Việt Nam"
    },
    "Trí Ðạo": {
        "uri": "Tr%C3%AD%20%C3%90%E1%BA%A1o",
        "lat": "17.158597999999998",
        "lon": "107.33935763961352",
        "name": "Đảo Cồn Cỏ, Cồn Cỏ, Quảng Trị, Việt Nam"
    },
    "Bến Tre": {
        "uri": "B%E1%BA%BFn%20Tre",
        "lat": "10.1245254",
        "lon": "106.4690447",
        "name": "Bến Tre, Việt Nam"
    },
    "Tuần Thượng": {
        "uri": "Tu%E1%BA%A7n%20Th%C6%B0%E1%BB%A3ng",
        "lat": "14.013393",
        "lon": "109.0540994",
        "name": "Doanh Nghiệp Tư Nhân Dịch Vụ Và Thương Mại Tuấn Khoa, Ngô Mây, Phù Cát, Tỉnh Bình Định, Việt Nam"
    },
    "Văn Bàn": {
        "uri": "V%C4%83n%20B%C3%A0n",
        "lat": "22.0643428",
        "lon": "104.16914052211969",
        "name": "Văn Bàn, Tỉnh Lào Cai, 33000, Việt Nam"
    },
    "Vạn Ninh": {
        "uri": "V%E1%BA%A1n%20Ninh"
    },
    "Vị Thanh": {
        "uri": "V%E1%BB%8B%20Thanh",
        "lat": "9.7832231",
        "lon": "105.4670349",
        "name": "Vị Thanh, Hậu Giang, Việt Nam"
    },
    "Việt Trì": {
        "uri": "Vi%E1%BB%87t%20Tr%C3%AC",
        "lat": "21.324229",
        "lon": "105.3881392",
        "name": "Việt Trì, Tỉnh Phú Thọ, Việt Nam"
    },
    "Vĩnh Ðồng": {
        "uri": "V%C4%A9nh%20%C3%90%E1%BB%93ng",
        "lat": "18.6835279",
        "lon": "105.6659869",
        "name": "Ngõ 174 Trường Chinh, Vinh, Nghệ An, Việt Nam, P. Lê Lợi, Thành phố Vinh, Tỉnh Nghệ An, 6400, Việt Nam"
    },
    "Vĩnh Lai": {
        "uri": "V%C4%A9nh%20Lai",
        "lat": "14.4411428",
        "lon": "108.4534081154379",
        "name": "Hồ C Vĩnh Sơn, plei Kô Lênh, K'Bang, Tỉnh Gia Lai, Việt Nam"
    },
    "Vĩnh Lộc": {
        "uri": "V%C4%A9nh%20L%E1%BB%99c",
        "lat": "20.0408855",
        "lon": "105.64896768729713",
        "name": "Vĩnh Lộc, Tỉnh Thanh Hóa, Việt Nam"
    },
    "Vĩnh Long": {
        "uri": "V%C4%A9nh%20Long",
        "lat": "10.10669085",
        "lon": "105.9866244338455",
        "name": "Tỉnh Vĩnh Long, Việt Nam"
    },
    "Vĩnh Qưới": {
        "uri": "V%C4%A9nh%20Q%C6%B0%E1%BB%9Bi"
    },
    "Vĩnh Tuy": {
        "uri": "V%C4%A9nh%20Tuy",
        "lat": "14.597193",
        "lon": "109.0698356",
        "name": "Vĩnh Tuy, Đức Phổ, Tỉnh Quảng Ngãi, Việt Nam"
    },
    "Vĩnh Yên": {
        "uri": "V%C4%A9nh%20Y%C3%AAn",
        "lat": "21.3088479",
        "lon": "105.5916322",
        "name": "Vĩnh Yên, Tỉnh Vĩnh Phúc, 280000, Việt Nam"
    },
    "Vũng Tàu": {
        "uri": "V%C5%A9ng%20T%C3%A0u",
        "lat": "10.3486485",
        "lon": "107.0765028",
        "name": "Vũng Tàu, Tỉnh Bà Rịa-Vũng Tàu, Việt Nam"
    },
    "Xã Bình Giả": {
        "uri": "X%C3%A3%20B%C3%ACnh%20Gi%E1%BA%A3",
        "lat": "10.6492185",
        "lon": "107.2662525",
        "name": "Xã Bình Giã, Huyện Châu Đức, Tỉnh Bà Rịa-Vũng Tàu, Việt Nam"
    },
    "Xã Mường Mán": {
        "uri": "X%C3%A3%20M%C6%B0%E1%BB%9Dng%20M%C3%A1n"
    },
    "Xã Thọ Thành": {
        "uri": "X%C3%A3%20Th%E1%BB%8D%20Th%C3%A0nh",
        "lat": "10.77974385",
        "lon": "106.69901186265822",
        "name": "Nhà thờ Đức Bà, 1, Công Xã Pari, Bến Nghé, Thành phố Hồ Chí Minh, Quận Nhứt, 70206, Việt Nam"
    },
    "Xóm Bến Oản": {
        "uri": "X%C3%B3m%20B%E1%BA%BFn%20O%E1%BA%A3n",
        "lat": "20.615969",
        "lon": "105.7413146",
        "name": "Chùa Giải Oan, Xóm Thành Đạt, Hội Xá, Mỹ Đức, Hà Nội, Việt Nam"
    },
    "Xóm Cửa Tiểu": {
        "uri": "X%C3%B3m%20C%E1%BB%ADa%20Ti%E1%BB%83u"
    },
    "Xóm Tăng": {
        "uri": "X%C3%B3m%20T%C4%83ng",
        "lat": "20.65333485",
        "lon": "105.74499666004616",
        "name": "Nhà thờ Đông Mỹ, Xóm Thành Đạt, Hội Xá, Mỹ Đức, Hà Nội, Việt Nam"
    },
    "Xuân Bồ": {
        "uri": "Xu%C3%A2n%20B%E1%BB%93",
        "lat": "17.4692578",
        "lon": "106.6064348",
        "name": "Xuân Bồ, Nam Lý, Đồng Hới, Tỉnh Quảng Bình, 052, Việt Nam"
    },
    "Xuân Lộc": {
        "uri": "Xu%C3%A2n%20L%E1%BB%99c",
        "lat": "10.927833",
        "lon": "107.43381204344364",
        "name": "Xuân Lộc, Tỉnh Đồng Nai, 76615, Việt Nam"
    },
    "Yên Lạc": {
        "uri": "Y%C3%AAn%20L%E1%BA%A1c",
        "lat": "21.2190517",
        "lon": "105.5794739",
        "name": "Yên Lạc, Tỉnh Vĩnh Phúc, Việt Nam"
    },
    "Kiến An": {
        "uri": "Ki%E1%BA%BFn%20An"
    },
    "Ðại Ngãi": {
        "uri": "%C3%90%E1%BA%A1i%20Ng%C3%A3i",
        "lat": "9.7331745",
        "lon": "106.0743049",
        "name": "Đại Ngãi, Hồng Dân, Tỉnh Sóc Trăng, Việt Nam"
    },
    "Ph. Kampông Krâsăng": {
        "uri": "Ph.%20Kamp%C3%B4ng%20Kr%C3%A2s%C4%83ng"
    },
    "Yên Viên": {
        "uri": "Y%C3%AAn%20Vi%C3%AAn"
    },
    "Ba. Xiêng Lằm": {
        "uri": "Ba.%20Xi%C3%AAng%20L%E1%BA%B1m"
    },
    "Cầu Diễn": {
        "uri": "C%E1%BA%A7u%20Di%E1%BB%85n"
    },
    "Giồng Gia": {
        "uri": "Gi%E1%BB%93ng%20Gia"
    },
    "Sai Nghi": {
        "uri": "Sai%20Nghi"
    },
    "Giao Thạnh": {
        "uri": "Giao%20Th%E1%BA%A1nh",
        "lat": "9.9036375",
        "lon": "106.6088484",
        "name": "Giao Thạnh, Huyện Thạnh Phú, Tỉnh Bến Tre, Việt Nam"
    },
    "Ba. Quảng Yên": {
        "uri": "Ba.%20Qu%E1%BA%A3ng%20Y%C3%AAn",
        "lat": "19.1809733",
        "lon": "104.6001782",
        "name": "Ba. Quảng Yên, Tương Dương, Tỉnh Nghệ An, Việt Nam"
    },
    "ấp 1": {
        "uri": "%E1%BA%A5p%201",
        "lat": "9.2259626",
        "lon": "105.412771",
        "name": "1, Hộ Phòng, Ấp Hai, Thị xã Giá Rai, Tỉnh Bạc Liêu, Việt Nam"
    },
    "Núi Đối": {
        "uri": "N%C3%BAi%20%C4%90%E1%BB%91i",
        "lat": "20.753686",
        "lon": "106.6595202",
        "name": "Núi Đối, Hải Phòng, Xã Thanh Sơn, Việt Nam"
    },
    "Ba. Xốp Pu": {
        "uri": "Ba.%20X%E1%BB%91p%20Pu"
    },
    "Phú Xuyên": {
        "uri": "Ph%C3%BA%20Xuy%C3%AAn"
    },
    "Đoàn Xá": {
        "uri": "%C4%90o%C3%A0n%20X%C3%A1"
    },
    "Đồng Ngư": {
        "uri": "%C4%90%E1%BB%93ng%20Ng%C6%B0",
        "lat": "20.6551382",
        "lon": "106.6755009",
        "name": "Đồng Ngư, Hải Phòng, Xã Vinh Quang, Việt Nam"
    },
    "Ba. Đình Thắng": {
        "uri": "Ba.%20%C4%90%C3%ACnh%20Th%E1%BA%AFng",
        "lat": "19.2134845",
        "lon": "104.633643",
        "name": "Ba. Đình Thắng, Tương Dương, Tỉnh Nghệ An, Việt Nam"
    },
    "Duyên Hải": {
        "uri": "Duy%C3%AAn%20H%E1%BA%A3i",
        "lat": "9.6373988",
        "lon": "106.4963381",
        "name": "Thị xã Duyên Hải, Trà Vinh, Việt Nam"
    },
    "Đức Giang": {
        "uri": "%C4%90%E1%BB%A9c%20Giang",
        "lat": "21.0636767",
        "lon": "105.8959132",
        "name": "Đức Giang, Quận Long Biên, Hà Nội, 0947733060, Việt Nam"
    },
    "Vĩnh Bảo": {
        "uri": "V%C4%A9nh%20B%E1%BA%A3o",
        "lat": "20.681447499999997",
        "lon": "106.46351097278563",
        "name": "Vĩnh Bảo, Hải Phòng, Xã Tân Hưng, 186450, Việt Nam"
    },
    "Đông Cao": {
        "uri": "%C4%90%C3%B4ng%20Cao"
    },
    "Na Ca": {
        "uri": "Na%20Ca",
        "lat": "19.2692918",
        "lon": "104.7924845",
        "name": "Na Ca, Tương Dương, Tỉnh Nghệ An, Việt Nam"
    },
    "Quán Định": {
        "uri": "Qu%C3%A1n%20%C4%90%E1%BB%8Bnh",
        "lat": "11.1593221",
        "lon": "107.2695135",
        "name": "Làng bè Định Quán, Định Quán, Tỉnh Đồng Nai, 814390, Việt Nam"
    },
    "Xốp Cốc": {
        "uri": "X%E1%BB%91p%20C%E1%BB%91c",
        "lat": "19.2135853",
        "lon": "104.7011984",
        "name": "Xốp Cốc, Tương Dương, Tỉnh Nghệ An, Việt Nam"
    },
    "Sông Đốc": {
        "uri": "S%C3%B4ng%20%C4%90%E1%BB%91c",
        "lat": "9.0373617",
        "lon": "104.820272",
        "name": "Sông Đốc, Trần Văn Thời, Tỉnh Cà Mau, Việt Nam"
    },
    "Ba. Tông Phay": {
        "uri": "Ba.%20T%C3%B4ng%20Phay"
    },
    "Ba.Hồng Điên": {
        "uri": "Ba.H%E1%BB%93ng%20%C4%90i%C3%AAn",
        "lat": "20.8616226",
        "lon": "106.6837567",
        "name": "Điện Biên Phủ, Phan Bá Trực, Hạ Lý, Quận Hồng Bàng, Hải Phòng, 031, Việt Nam"
    },
    "Thái Tân": {
        "uri": "Th%C3%A1i%20T%C3%A2n",
        "lat": "20.4934631",
        "lon": "106.5232928",
        "name": "Thái Tân, Thái Thụy, Tỉnh Thái Bình, Việt Nam"
    },
    "Định Cư": {
        "uri": "%C4%90%E1%BB%8Bnh%20C%C6%B0",
        "lat": "12.2380479",
        "lon": "109.1882714",
        "name": "Định Cư, Phước Hòa, Nha Trang, Khánh Hòa, 48058, Việt Nam"
    },
    "Nghĩa Thành": {
        "uri": "Ngh%C4%A9a%20Th%C3%A0nh",
        "lat": "10.7421133",
        "lon": "106.6220436",
        "name": "Nghia, Đường số 33, Phường 10, Quận 6, Thành phố Hồ Chí Minh, 747116, Việt Nam"
    },
    "Việt Quang": {
        "uri": "Vi%E1%BB%87t%20Quang",
        "lat": "22.4118958",
        "lon": "104.8061238",
        "name": "Việt Quang, Bắc Quang, Tỉnh Hà Giang, Việt Nam"
    },
    "Hưng Hải": {
        "uri": "H%C6%B0ng%20H%E1%BA%A3i",
        "lat": "20.3001977",
        "lon": "106.5662904",
        "name": "Hưng Hải, Tiền Hải, Tỉnh Thái Bình, Việt Nam"
    },
    "Yên Hòa": {
        "uri": "Y%C3%AAn%20H%C3%B2a",
        "lat": "19.1882717",
        "lon": "105.3663392",
        "name": "Yên Hòa, Tân Kỳ, Tỉnh Nghệ An, Việt Nam"
    },
    "Tiền Phong": {
        "uri": "Ti%E1%BB%81n%20Phong"
    },
    "Nam Hải": {
        "uri": "Nam%20H%E1%BA%A3i",
        "lat": "18.4278071",
        "lon": "105.9567849",
        "name": "Nam Hải, Thạch Hà, Hà Tĩnh, Việt Nam"
    },
    "Đông Mông": {
        "uri": "%C4%90%C3%B4ng%20M%C3%B4ng",
        "lat": "21.541723",
        "lon": "107.8819227",
        "name": "Hải Đông, Móng Cái, Tỉnh Quảng Ninh, Việt Nam"
    },
    "Nghĩa Tỏm": {
        "uri": "Ngh%C4%A9a%20T%E1%BB%8Fm",
        "lat": "19.1671621",
        "lon": "105.4790121",
        "name": "Nghĩa Tân, Quỳnh Lưu, Tỉnh Nghệ An, Việt Nam"
    },
    "Đông Anh": {
        "uri": "%C4%90%C3%B4ng%20Anh",
        "lat": "21.162939",
        "lon": "105.8469089",
        "name": "Đông Anh, Hà Nội, Việt Nam"
    },
    "Sao Đỏ": {
        "uri": "Sao%20%C4%90%E1%BB%8F"
    },
    "Thương Khánh": {
        "uri": "Th%C6%B0%C6%A1ng%20Kh%C3%A1nh",
        "lat": "19.2273918",
        "lon": "105.3852207",
        "name": "Thương Khánh, Nghĩa Đàn, Tỉnh Nghệ An, Việt Nam"
    },
    "Tam Dương": {
        "uri": "Tam%20D%C6%B0%C6%A1ng",
        "lat": "22.33026035",
        "lon": "103.61055138332335",
        "name": "Tam Đường, Tỉnh Lai Châu, Việt Nam"
    },
    "Vinh Quang": {
        "uri": "Vinh%20Quang",
        "lat": "19.3760148",
        "lon": "105.7659415",
        "name": "Vinh Quang, Thị xã Nghi Sơn, Tỉnh Thanh Hóa, Việt Nam"
    },
    "Mỹ Long": {
        "uri": "M%E1%BB%B9%20Long",
        "lat": "12.2387025",
        "lon": "109.1933659",
        "name": "My Long, Nguyễn Thiện Thuật, Tân Lập, Nha Trang, Khánh Hòa, 65000, Việt Nam"
    },
    "Đồng Thăng": {
        "uri": "%C4%90%E1%BB%93ng%20Th%C4%83ng"
    },
    "Yên Nhân": {
        "uri": "Y%C3%AAn%20Nh%C3%A2n",
        "lat": "20.880489",
        "lon": "106.0698351",
        "name": "Nhân Hòa Thương, Yên Mỹ, Tỉnh Hưng Yên, Việt Nam"
    },
    "Gia Lộc": {
        "uri": "Gia%20L%E1%BB%99c",
        "lat": "20.8443905",
        "lon": "106.30103708763326",
        "name": "Gia Lộc, Hai Duong city, Việt Nam"
    },
    "Thanh Xuân": {
        "uri": "Thanh%20Xu%C3%A2n",
        "lat": "20.9936873",
        "lon": "105.8143014",
        "name": "Thanh Xuân, Quận Thanh Xuân, Hà Nội, 120911, Việt Nam"
    },
    "Tứ Kỳ": {
        "uri": "T%E1%BB%A9%20K%E1%BB%B3",
        "lat": "20.8214888",
        "lon": "106.3983485",
        "name": "Tứ Kỳ, Hai Duong city, Việt Nam"
    },
    "Tam Thái": {
        "uri": "Tam%20Th%C3%A1i"
    },
    "Tiên Lãng": {
        "uri": "Ti%C3%AAn%20L%C3%A3ng",
        "lat": "20.7122546",
        "lon": "106.56294243179917",
        "name": "Tiên Lãng, Hải Phòng, Xã Bạch Đằng, Việt Nam"
    },
    "Diêm Phổ": {
        "uri": "Di%C3%AAm%20Ph%E1%BB%95",
        "lat": "19.9281888",
        "lon": "105.9513446",
        "name": "Diêm Phổ, Hậu Lộc, Tỉnh Thanh Hóa, Việt Nam"
    },
    "Yên Mỹ": {
        "uri": "Y%C3%AAn%20M%E1%BB%B9",
        "lat": "20.894997500000002",
        "lon": "106.0213599668703",
        "name": "Yên Mỹ, Tỉnh Hưng Yên, Việt Nam"
    },
    "Kim Tri": {
        "uri": "Kim%20Tri",
        "lat": "19.5816396",
        "lon": "105.4121601",
        "name": "Kim Tri, Như Xuân, Tỉnh Thanh Hóa, Việt Nam"
    },
    "Thịnh Long": {
        "uri": "Th%E1%BB%8Bnh%20Long",
        "lat": "20.0359469",
        "lon": "106.2217662",
        "name": "Thịnh Long, Hải Hậu, Tỉnh Nam Định, Việt Nam"
    },
    "Vạn Thành": {
        "uri": "V%E1%BA%A1n%20Th%C3%A0nh",
        "lat": "20.7929201",
        "lon": "106.721684",
        "name": "Vạn Thành, Quận Dương Kinh, Hải Phòng, Việt Nam"
    },
    "Hòa Châu": {
        "uri": "H%C3%B2a%20Ch%C3%A2u",
        "lat": "10.5307018",
        "lon": "106.4296459",
        "name": "Sửa Xe Châu, Nguyễn Thông, Phường 3, Xã Bình Tâm, Tân An, Tỉnh Long An, 870000, Việt Nam"
    },
    "Bắc Thành": {
        "uri": "B%E1%BA%AFc%20Th%C3%A0nh",
        "lat": "20.6476126",
        "lon": "106.0605259",
        "name": "Bắc Thành, Quang Trung, Phường Quang Trung, Hưng Yên, Tỉnh Hưng Yên, Việt Nam"
    },
    "Diễn Bình": {
        "uri": "Di%E1%BB%85n%20B%C3%ACnh",
        "lat": "14.6059292",
        "lon": "107.8833067",
        "name": "Diên Binh, Huyện Đắk Tô, Tỉnh Kon Tum, Việt Nam"
    },
    "Sao Vàng": {
        "uri": "Sao%20V%C3%A0ng",
        "lat": "19.9043348",
        "lon": "105.46291629552427",
        "name": "Cảng hàng không Thọ Xuân, Quốc lộ 47, Sao Vàng, Huyện Thọ Xuân, Tỉnh Thanh Hóa, Việt Nam"
    },
    "Thanh Hà": {
        "uri": "Thanh%20H%C3%A0",
        "lat": "15.8860284",
        "lon": "108.2985729",
        "name": "Thanh Hà, Thành phố Hội An, Tỉnh Quảng Nam, 5600, Việt Nam"
    },
    "Hòa Thành": {
        "uri": "H%C3%B2a%20Th%C3%A0nh",
        "lat": "11.2852792",
        "lon": "106.1296168",
        "name": "Hòa Thành, Thị xã Hòa Thành, Tỉnh Tây Ninh, 842820, Việt Nam"
    },
    "Thống Nhất": {
        "uri": "Th%E1%BB%91ng%20Nh%E1%BA%A5t",
        "lat": "10.9505247",
        "lon": "106.8339299",
        "name": "Phường Thống Nhất, Biên Hòa, Thành phố Biên Hòa, Tỉnh Đồng Nai, Việt Nam"
    },
    "Hớn Thành": {
        "uri": "H%E1%BB%9Bn%20Th%C3%A0nh"
    },
    "Xuân Thượng": {
        "uri": "Xu%C3%A2n%20Th%C6%B0%E1%BB%A3ng",
        "lat": "19.91464005",
        "lon": "105.27218773518156",
        "name": "Thường Xuân, Tỉnh Thanh Hóa, Việt Nam"
    },
    "Chợ Vàm": {
        "uri": "Ch%E1%BB%A3%20V%C3%A0m",
        "lat": "10.7073043",
        "lon": "105.3414156",
        "name": "Chợ Vàm, Huyện Phú Tân, Tỉnh An Giang, 88000, Việt Nam"
    },
    "Ba.Na Sai": {
        "uri": "Ba.Na%20Sai",
        "lat": "22.3270334",
        "lon": "103.5171982",
        "name": "Nà Sài, Xã Bản Giang, Tam Đường, Tỉnh Lai Châu, Việt Nam"
    },
    "Chòm Đông": {
        "uri": "Ch%C3%B2m%20%C4%90%C3%B4ng"
    },
    "làng Tram": {
        "uri": "l%C3%A0ng%20Tram"
    },
    "Ba. Nong Đanh": {
        "uri": "Ba.%20Nong%20%C4%90anh"
    },
    "Phú Mỹ": {
        "uri": "Ph%C3%BA%20M%E1%BB%B9",
        "lat": "10.5882274",
        "lon": "107.0583976",
        "name": "Thị xã Phú Mỹ, Tỉnh Bà Rịa-Vũng Tàu, Việt Nam"
    },
    "Ba. Mường Piệt": {
        "uri": "Ba.%20M%C6%B0%E1%BB%9Dng%20Pi%E1%BB%87t",
        "lat": "19.8497742",
        "lon": "104.8664161",
        "name": "Mường Piệt, Quế Phong, Tỉnh Nghệ An, Việt Nam"
    },
    "Shuikojie": {
        "uri": "Shuikojie"
    },
    "Ba. Mường Lòng": {
        "uri": "Ba.%20M%C6%B0%E1%BB%9Dng%20L%C3%B2ng",
        "lat": "19.5314089",
        "lon": "104.3354624",
        "name": "Ba. Mường Lòng, Huyện Kỳ Sơn, Tỉnh Nghệ An, Việt Nam"
    },
    "Mỹ Thọ": {
        "uri": "M%E1%BB%B9%20Th%E1%BB%8D",
        "lat": "10.3606197",
        "lon": "106.3658439",
        "name": "Thành phố Mỹ Tho, Tỉnh Tiền Giang, Việt Nam"
    },
    "Ba.Piềng Lau": {
        "uri": "Ba.Pi%E1%BB%81ng%20Lau"
    },
    "An Châu": {
        "uri": "An%20Ch%C3%A2u",
        "lat": "21.3329193",
        "lon": "106.8490808",
        "name": "An Châu, Sơn Động, Tỉnh Bắc Giang, Việt Nam"
    },
    "Ba. Xốp Pe": {
        "uri": "Ba.%20X%E1%BB%91p%20Pe",
        "lat": "19.5424789",
        "lon": "104.4921679",
        "name": "Xốp Pe, Tương Dương, Tỉnh Nghệ An, Việt Nam"
    },
    "Núi Sập": {
        "uri": "N%C3%BAi%20S%E1%BA%ADp",
        "lat": "10.2636476",
        "lon": "105.2719813",
        "name": "Núi Sập, Thoại Sơn, Tỉnh An Giang, Việt Nam"
    },
    "Cồn": {
        "uri": "C%E1%BB%93n"
    },
    "Cái Vồn": {
        "uri": "C%C3%A1i%20V%E1%BB%93n",
        "lat": "10.0664614",
        "lon": "105.8099572",
        "name": "Cái Vồn, Tỉnh Vĩnh Long, 900000, Việt Nam"
    },
    "Đắk Tô": {
        "uri": "%C4%90%E1%BA%AFk%20T%C3%B4"
    },
    "Hải Triều": {
        "uri": "H%E1%BA%A3i%20Tri%E1%BB%81u",
        "lat": "12.6872102",
        "lon": "108.0501835",
        "name": "Hải Triều, Buôn Ma Thuột, Đắk Lắk, 63000000, Việt Nam"
    },
    "Vĩnh Bình": {
        "uri": "V%C4%A9nh%20B%C3%ACnh",
        "lat": "9.7704606",
        "lon": "106.3563806",
        "name": "Trà Vinh, Việt Nam"
    },
    "Tân Hòa": {
        "uri": "T%C3%A2n%20H%C3%B2a",
        "lat": "10.1906333",
        "lon": "105.6319377",
        "name": "Tân Hòa, Huyện Lai Vung, Đồng Tháp, 90000, Việt Nam"
    },
    "Đắk Tram": {
        "uri": "%C4%90%E1%BA%AFk%20Tram",
        "lat": "14.776064",
        "lon": "107.8701779",
        "name": "Đắk Tram, Huyện Đắk Tô, Tỉnh Kon Tum, Việt Nam"
    },
    "Đắk Chum": {
        "uri": "%C4%90%E1%BA%AFk%20Chum",
        "lat": "14.901039",
        "lon": "107.9807929",
        "name": "Đắk Chum, Tu Mơ Rông, Tỉnh Kon Tum, Việt Nam"
    },
    "Chợ Chúc A": {
        "uri": "Ch%E1%BB%A3%20Ch%C3%BAc%20A"
    },
    "Kon Tuồng": {
        "uri": "Kon%20Tu%E1%BB%93ng",
        "lat": "15.0438059",
        "lon": "107.9111805",
        "name": "Kon Tuồng, Đắk Glei, Tỉnh Kon Tum, Việt Nam"
    },
    "Ba. Ca Xiêng": {
        "uri": "Ba.%20Ca%20Xi%C3%AAng",
        "lat": "17.9222045",
        "lon": "105.6793445",
        "name": "Ba. Ca Xiêng, Minh Hóa, Tỉnh Quảng Bình, Việt Nam"
    },
    "Thanh Long": {
        "uri": "Thanh%20Long"
    },
    "Nghi Xuân": {
        "uri": "Nghi%20Xu%C3%A2n",
        "lat": "18.644419999999997",
        "lon": "105.75753302632616",
        "name": "Nghi Xuân, Hà Tĩnh, 45506, Việt Nam"
    },